{"type":"FeatureCollection","features":[{"type":"Feature","geometry":{"type":"Point","coordinates":[-80.1994,35.3992]},"properties":{"id":"COOP:310090","name":"ALBEMARLE, NC US","elevation":185.9}},{"type":"Feature","geometry":{"type":"Point","coordinates":[-82.01667,35.9]},"properties":{"id":"COOP:310160","name":"ALTAPASS, NC US","elevation":841.9}},{"type":"Feature","geometry":{"type":"Point","coordinates":[-83.83861,35.20139]},"properties":{"id":"COOP:310184","name":"ANDREWS, NC US","elevation":533.1}},{"type":"Feature","geometry":{"type":"Point","coordinates":[-83.91667,35.06667]},"properties":{"id":"COOP:310192","name":"ANDREWS DAM, NC US","elevation":519.1}},{"type":"Feature","geometry":{"type":"Point","coordinates":[-78.8369,35.7426]},"properties":{"id":"COOP:310212","name":"APEX, NC US","elevation":137.2}},{"type":"Feature","geometry":{"type":"Point","coordinates":[-77.9822,36.2911]},"properties":{"id":"COOP:310241","name":"ARCOLA, NC US","elevation":100.6}},{"type":"Feature","geometry":{"type":"Point","coordinates":[-79.8378,35.7044]},"properties":{"id":"COOP:310286","name":"ASHEBORO 2 W, NC US","elevation":265.2}},{"type":"Feature","geometry":{"type":"Point","coordinates":[-82.48333,35.43333]},"properties":{"id":"COOP:310296","name":"ASHEVILLE HENDERSONVILLE AIRPORT, NC US","elevation":637.9}},{"type":"Feature","geometry":{"type":"Point","coordinates":[-82.5375,35.4319]},"properties":{"id":"COOP:310300","name":"ASHEVILLE AIRPORT, NC US","elevation":645.3}},{"type":"Feature","geometry":{"type":"Point","coordinates":[-82.5568,35.5954]},"properties":{"id":"COOP:310301","name":"ASHEVILLE, NC US","elevation":682.1}},{"type":"Feature","geometry":{"type":"Point","coordinates":[-81.9352,35.8922]},"properties":{"id":"COOP:310312","name":"ASHFORD, NC US","elevation":571.5}},{"type":"Feature","geometry":{"type":"Point","coordinates":[-81.95,35.9]},"properties":{"id":"COOP:310314","name":"ASHFORD 2 N, NC US","elevation":604.1}},{"type":"Feature","geometry":{"type":"Point","coordinates":[-76.7381,34.6997]},"properties":{"id":"COOP:310356","name":"ATLANTIC BEACH WATER PLANT, NC US","elevation":1.2}},{"type":"Feature","geometry":{"type":"Point","coordinates":[-76.7763,35.3872]},"properties":{"id":"COOP:310375","name":"AURORA 6 N, NC US","elevation":6.1}},{"type":"Feature","geometry":{"type":"Point","coordinates":[-80.1827,35.4591]},"properties":{"id":"COOP:310438","name":"BADIN, NC US","elevation":182.9}},{"type":"Feature","geometry":{"type":"Point","coordinates":[-82.16667,36.01667]},"properties":{"id":"COOP:310466","name":"BAKERSVILLE, NC US","elevation":755.9}},{"type":"Feature","geometry":{"type":"Point","coordinates":[-83.08333,35.41667]},"properties":{"id":"COOP:310490","name":"BALSAM, NC US","elevation":1066.8}},{"type":"Feature","geometry":{"type":"Point","coordinates":[-81.8741,36.1616]},"properties":{"id":"COOP:310506","name":"BANNER ELK, NC US","elevation":1149.1}},{"type":"Feature","geometry":{"type":"Point","coordinates":[-82.4325,35.76]},"properties":{"id":"COOP:310530","name":"BARNARDSVILLE 2 SE, NC US","elevation":707.1}},{"type":"Feature","geometry":{"type":"Point","coordinates":[-82.4325,35.76]},"properties":{"id":"COOP:310531","name":"BARNARDSVILLE 2 SE, NC US","elevation":707.1}},{"type":"Feature","geometry":{"type":"Point","coordinates":[-76.83333,35.45]},"properties":{"id":"COOP:310562","name":"BATH 2 WSW, NC US","elevation":3}},{"type":"Feature","geometry":{"type":"Point","coordinates":[-76.816,35.1311]},"properties":{"id":"COOP:310576","name":"BAYBORO 3 SW, NC US","elevation":1.5}},{"type":"Feature","geometry":{"type":"Point","coordinates":[-84.08333,35.23333]},"properties":{"id":"COOP:310634","name":"BEAVERDAM CREEK, NC US","elevation":641}},{"type":"Feature","geometry":{"type":"Point","coordinates":[-84.1,35.21667]},"properties":{"id":"COOP:310635","name":"BEAVERDAM CREEK, NC US","elevation":573}},{"type":"Feature","geometry":{"type":"Point","coordinates":[-82.43333,35.7]},"properties":{"id":"COOP:310642","name":"BEECH, NC US","elevation":1021.1}},{"type":"Feature","geometry":{"type":"Point","coordinates":[-81.87409,36.18738]},"properties":{"id":"COOP:310645","name":"BEECH MOUNTAIN, NC US","elevation":1540.2}},{"type":"Feature","geometry":{"type":"Point","coordinates":[-82.4,35.63333]},"properties":{"id":"COOP:310650","name":"BEETREE DAM, NC US","elevation":775.1}},{"type":"Feature","geometry":{"type":"Point","coordinates":[-82.4,35.63333]},"properties":{"id":"COOP:310652","name":"BEETREE DAM 2, NC US","elevation":775.1}},{"type":"Feature","geometry":{"type":"Point","coordinates":[-82.4,35.7]},"properties":{"id":"COOP:310655","name":"BEETREE GAP, NC US","elevation":1583.1}},{"type":"Feature","geometry":{"type":"Point","coordinates":[-76.5848,35.573]},"properties":{"id":"COOP:310674","name":"BELHAVEN 3 NE, NC US","elevation":0}},{"type":"Feature","geometry":{"type":"Point","coordinates":[-82.5966,35.5044]},"properties":{"id":"COOP:310724","name":"BENT CREEK, NC US","elevation":643.1}},{"type":"Feature","geometry":{"type":"Point","coordinates":[-79.0706,35.6542]},"properties":{"id":"COOP:310750","name":"B. EVERETT JORDAN DAM, NC US","elevation":94.5}},{"type":"Feature","geometry":{"type":"Point","coordinates":[-82.81667,35.36667]},"properties":{"id":"COOP:310795","name":"BIG EAST FORK PIGEON, NC US","elevation":1030.2}},{"type":"Feature","geometry":{"type":"Point","coordinates":[-82.35944,35.60722]},"properties":{"id":"COOP:310843","name":"BLACK MOUNTAIN, NC US","elevation":698}},{"type":"Feature","geometry":{"type":"Point","coordinates":[-82.6306,35.3044]},"properties":{"id":"COOP:310878","name":"BLANTYRE 2, NC US","elevation":655.3}},{"type":"Feature","geometry":{"type":"Point","coordinates":[-81.7025,36.1472]},"properties":{"id":"COOP:310901","name":"BLOWING ROCK 1 NW, NC US","elevation":1173.5}},{"type":"Feature","geometry":{"type":"Point","coordinates":[-82.36667,35.35]},"properties":{"id":"COOP:310909","name":"BLUE RIDGE POST OFFI, NC US","elevation":694.9}},{"type":"Feature","geometry":{"type":"Point","coordinates":[-81.21667,36.4]},"properties":{"id":"COOP:310917","name":"BLUFF, NC US","elevation":990.9}},{"type":"Feature","geometry":{"type":"Point","coordinates":[-81.3517,36.0694]},"properties":{"id":"COOP:310967","name":"BOOMER 5 W, NC US","elevation":341.4}},{"type":"Feature","geometry":{"type":"Point","coordinates":[-81.66667,36.21667]},"properties":{"id":"COOP:310977","name":"BOONE, NC US","elevation":987.9}},{"type":"Feature","geometry":{"type":"Point","coordinates":[-81.64563,36.21395]},"properties":{"id":"COOP:310982","name":"BOONE, NC US","elevation":944.9}},{"type":"Feature","geometry":{"type":"Point","coordinates":[-82.73575,35.22844]},"properties":{"id":"COOP:311055","name":"BREVARD, NC US","elevation":662.9}},{"type":"Feature","geometry":{"type":"Point","coordinates":[-81.8362,35.7427]},"properties":{"id":"COOP:311081","name":"BRIDGEWATER HYDRO, NC US","elevation":335.3}},{"type":"Feature","geometry":{"type":"Point","coordinates":[-78.71667,34.25]},"properties":{"id":"COOP:311151","name":"BRUNSWICK 3 SSW, NC US","elevation":15.8}},{"type":"Feature","geometry":{"type":"Point","coordinates":[-83.4383,35.4286]},"properties":{"id":"COOP:311156","name":"BRYSON CITY 2, NC US","elevation":618.1}},{"type":"Feature","geometry":{"type":"Point","coordinates":[-83.45,35.43333]},"properties":{"id":"COOP:311159","name":"BRYSON CITY, NC US","elevation":537.1}},{"type":"Feature","geometry":{"type":"Point","coordinates":[-83.45,35.43333]},"properties":{"id":"COOP:311164","name":"BRYSON CITY 2, NC US","elevation":548.9}},{"type":"Feature","geometry":{"type":"Point","coordinates":[-83.4623,35.4467]},"properties":{"id":"COOP:311165","name":"BRYSON CITY 4, NC US","elevation":605}},{"type":"Feature","geometry":{"type":"Point","coordinates":[-82.61667,35.18333]},"properties":{"id":"COOP:311174","name":"BUCK FOREST, NC US","elevation":766.6}},{"type":"Feature","geometry":{"type":"Point","coordinates":[-77.9719,34.5494]},"properties":{"id":"COOP:311221","name":"BURGAW AG 1 S, NC US","elevation":15.2}},{"type":"Feature","geometry":{"type":"Point","coordinates":[-77.8638,34.5322]},"properties":{"id":"COOP:311222","name":"BURGAW 4 E, NC US","elevation":10.1}},{"type":"Feature","geometry":{"type":"Point","coordinates":[-79.43333,36.08333]},"properties":{"id":"COOP:311236","name":"BURLINGTON, NC US","elevation":200.9}},{"type":"Feature","geometry":{"type":"Point","coordinates":[-79.4481,36.0603]},"properties":{"id":"COOP:311239","name":"BURLINGTON FIRE STATION NUMBER 5, NC US","elevation":201.2}},{"type":"Feature","geometry":{"type":"Point","coordinates":[-79.4366,36.0955]},"properties":{"id":"COOP:311241","name":"BURLINGTON, NC US","elevation":195.1}},{"type":"Feature","geometry":{"type":"Point","coordinates":[-82.2692,35.9253]},"properties":{"id":"COOP:311248","name":"BURNSVILLE AG, NC US","elevation":853.4}},{"type":"Feature","geometry":{"type":"Point","coordinates":[-78.7736,36.1414]},"properties":{"id":"COOP:311285","name":"BUTNER FILTER PLANT, NC US","elevation":108.2}},{"type":"Feature","geometry":{"type":"Point","coordinates":[-82.6987,35.5453]},"properties":{"id":"COOP:311420","name":"CANDLER 1 W, NC US","elevation":682.8}},{"type":"Feature","geometry":{"type":"Point","coordinates":[-82.4,35.91667]},"properties":{"id":"COOP:311433","name":"CANE RIVER, NC US","elevation":775.1}},{"type":"Feature","geometry":{"type":"Point","coordinates":[-82.7697,35.7044]},"properties":{"id":"COOP:311437","name":"CANTO, NC US","elevation":620.9}},{"type":"Feature","geometry":{"type":"Point","coordinates":[-82.85,35.51667]},"properties":{"id":"COOP:311441","name":"CANTON 1 SW, NC US","elevation":811.4}},{"type":"Feature","geometry":{"type":"Point","coordinates":[-78.8252,34.835]},"properties":{"id":"COOP:311449","name":"WILLIAM O HUSKE LOCK AND DAM, NC US","elevation":9.1}},{"type":"Feature","geometry":{"type":"Point","coordinates":[-75.6219,35.2326]},"properties":{"id":"COOP:311458","name":"CAPE HATTERAS BILLY MITCHELL FIELD, NC US","elevation":3.4}},{"type":"Feature","geometry":{"type":"Point","coordinates":[-81.8,35.28333]},"properties":{"id":"COOP:311479","name":"CAROLEEN, NC US","elevation":246.9}},{"type":"Feature","geometry":{"type":"Point","coordinates":[-79.4066,35.332]},"properties":{"id":"COOP:311515","name":"CARTHAGE WATER TREATMENT PLANT, NC US","elevation":134.1}},{"type":"Feature","geometry":{"type":"Point","coordinates":[-79.41667,35.31667]},"properties":{"id":"COOP:311520","name":"CARTHAGE 2 S, NC US","elevation":182.9}},{"type":"Feature","geometry":{"type":"Point","coordinates":[-83.48333,35.15]},"properties":{"id":"COOP:311528","name":"CARTOOGECHAYE CREEK, NC US","elevation":670.9}},{"type":"Feature","geometry":{"type":"Point","coordinates":[-78.7878,35.7192]},"properties":{"id":"COOP:311535","name":"CARY, NC US","elevation":118.9}},{"type":"Feature","geometry":{"type":"Point","coordinates":[-81.6189,35.5119]},"properties":{"id":"COOP:311538","name":"CASAR, NC US","elevation":344.4}},{"type":"Feature","geometry":{"type":"Point","coordinates":[-83.09556,35.6375]},"properties":{"id":"COOP:311564","name":"CATALOOCHEE, NC US","elevation":807.7}},{"type":"Feature","geometry":{"type":"Point","coordinates":[-83.1,35.55]},"properties":{"id":"COOP:311569","name":"CATALOOCHEE RANCH, NC US","elevation":1464}},{"type":"Feature","geometry":{"type":"Point","coordinates":[-81.08333,35.7]},"properties":{"id":"COOP:311577","name":"CATAWBA 1 WSW, NC US","elevation":249.9}},{"type":"Feature","geometry":{"type":"Point","coordinates":[-81.1342,35.6487]},"properties":{"id":"COOP:311578","name":"CATAWBA 5 SW, NC US","elevation":309.4}},{"type":"Feature","geometry":{"type":"Point","coordinates":[-81.08472,35.74444]},"properties":{"id":"COOP:311579","name":"CATAWBA 3 NNW, NC US","elevation":274.3}},{"type":"Feature","geometry":{"type":"Point","coordinates":[-81.06667,35.73333]},"properties":{"id":"COOP:311582","name":"CATAWBA LOOKOUT SHOA, NC US","elevation":259.1}},{"type":"Feature","geometry":{"type":"Point","coordinates":[-76.3,34.9833]},"properties":{"id":"COOP:311606","name":"CEDAR ISLAND, NC US","elevation":2.4}},{"type":"Feature","geometry":{"type":"Point","coordinates":[-82.63333,35.15]},"properties":{"id":"COOP:311614","name":"CEDAR MOUNTAIN, NC US","elevation":839.1}},{"type":"Feature","geometry":{"type":"Point","coordinates":[-82.1769,35.8297]},"properties":{"id":"COOP:311624","name":"CELO 2 S, NC US","elevation":816.9}},{"type":"Feature","geometry":{"type":"Point","coordinates":[-82.2,35.85]},"properties":{"id":"COOP:311629","name":"CELO, NC US","elevation":839.1}},{"type":"Feature","geometry":{"type":"Point","coordinates":[-82.9,35.56667]},"properties":{"id":"COOP:311663","name":"CHAMBERS MOUNTAIN, NC US","elevation":1311.9}},{"type":"Feature","geometry":{"type":"Point","coordinates":[-79.0794,35.9086]},"properties":{"id":"COOP:311677","name":"CHAPEL HILL 2 W, NC US","elevation":152.4}},{"type":"Feature","geometry":{"type":"Point","coordinates":[-79.01667,35.91667]},"properties":{"id":"COOP:311682","name":"CHAPEL HILL 2 E, NC US","elevation":153}},{"type":"Feature","geometry":{"type":"Point","coordinates":[-80.9552,35.2236]},"properties":{"id":"COOP:311690","name":"CHARLOTTE DOUGLAS AIRPORT, NC US","elevation":221.9}},{"type":"Feature","geometry":{"type":"Point","coordinates":[-80.85,35.23333]},"properties":{"id":"COOP:311695","name":"CHARLOTTE, NC US","elevation":235.9}},{"type":"Feature","geometry":{"type":"Point","coordinates":[-79.0047,35.7369]},"properties":{"id":"COOP:311700","name":"CHATHAM WTP, NC US","elevation":93.9}},{"type":"Feature","geometry":{"type":"Point","coordinates":[-83.8,35.01667]},"properties":{"id":"COOP:311703","name":"CHATUGE DAM, NC US","elevation":558.1}},{"type":"Feature","geometry":{"type":"Point","coordinates":[-83.31667,35.48333]},"properties":{"id":"COOP:311725","name":"CHEROKEE, NC US","elevation":616}},{"type":"Feature","geometry":{"type":"Point","coordinates":[-77.15306,35.51861]},"properties":{"id":"COOP:311770","name":"CHOCOWINITY, NC US","elevation":12.2}},{"type":"Feature","geometry":{"type":"Point","coordinates":[-78.4633,35.6408]},"properties":{"id":"COOP:311820","name":"CLAYTON WTP, NC US","elevation":91.4}},{"type":"Feature","geometry":{"type":"Point","coordinates":[-83.5,35.55]},"properties":{"id":"COOP:311869","name":"CLINGMANS DOME, NC US","elevation":1905.9}},{"type":"Feature","geometry":{"type":"Point","coordinates":[-78.31667,34.96667]},"properties":{"id":"COOP:311877","name":"CLINTON 2 S, NC US","elevation":46}},{"type":"Feature","geometry":{"type":"Point","coordinates":[-78.2758,35.0247]},"properties":{"id":"COOP:311881","name":"CLINTON 2 NE, NC US","elevation":48.2}},{"type":"Feature","geometry":{"type":"Point","coordinates":[-82.6,35.91667]},"properties":{"id":"COOP:311901","name":"CODY STORE, NC US","elevation":747.1}},{"type":"Feature","geometry":{"type":"Point","coordinates":[-79.61667,34.93333]},"properties":{"id":"COOP:311913","name":"HAMLET 4 NE, NC US","elevation":121.9}},{"type":"Feature","geometry":{"type":"Point","coordinates":[-76.127,35.7109]},"properties":{"id":"COOP:311949","name":"COLUMBIA AG GUM NECK, NC US","elevation":3}},{"type":"Feature","geometry":{"type":"Point","coordinates":[-76.26667,35.91667]},"properties":{"id":"COOP:311956","name":"COLUMBIA, NC US","elevation":3}},{"type":"Feature","geometry":{"type":"Point","coordinates":[-80.5834,35.4111]},"properties":{"id":"COOP:311975","name":"CONCORD, NC US","elevation":213.4}},{"type":"Feature","geometry":{"type":"Point","coordinates":[-81.1919,35.8213]},"properties":{"id":"COOP:311990","name":"CONOVER OXFORD SHOALS, NC US","elevation":269.1}},{"type":"Feature","geometry":{"type":"Point","coordinates":[-83.43333,35.06667]},"properties":{"id":"COOP:312097","name":"COWEETA, NC US","elevation":878.1}},{"type":"Feature","geometry":{"type":"Point","coordinates":[-83.4301,35.0604]},"properties":{"id":"COOP:312102","name":"COWEETA EXPERIMENT STATION, NC US","elevation":684.9}},{"type":"Feature","geometry":{"type":"Point","coordinates":[-83.46667,35.03333]},"properties":{"id":"COOP:312107","name":"COWEETA 8, NC US","elevation":1182.9}},{"type":"Feature","geometry":{"type":"Point","coordinates":[-82.35,35.81667]},"properties":{"id":"COOP:312110","name":"COXCOMBE MOUNTAIN, NC US","elevation":1296}},{"type":"Feature","geometry":{"type":"Point","coordinates":[-82.38333,35.68333]},"properties":{"id":"COOP:312120","name":"CRAGGY KNOB, NC US","elevation":1516.1}},{"type":"Feature","geometry":{"type":"Point","coordinates":[-76.98333,34.98333]},"properties":{"id":"COOP:312154","name":"CROATAN, NC US"}},{"type":"Feature","geometry":{"type":"Point","coordinates":[-81.93333,36.01667]},"properties":{"id":"COOP:312172","name":"CROSSNORE, NC US","elevation":1046.1}},{"type":"Feature","geometry":{"type":"Point","coordinates":[-83.1747,35.3116]},"properties":{"id":"COOP:312200","name":"CULLOWHEE, NC US","elevation":668.1}},{"type":"Feature","geometry":{"type":"Point","coordinates":[-80.4,36.3]},"properties":{"id":"COOP:312230","name":"DALTON, NC US","elevation":307.8}},{"type":"Feature","geometry":{"type":"Point","coordinates":[-80.1789,36.4301]},"properties":{"id":"COOP:312238","name":"DANBURY, NC US","elevation":310.6}},{"type":"Feature","geometry":{"type":"Point","coordinates":[-82.83333,35.28333]},"properties":{"id":"COOP:312253","name":"PISGAH FOREST 8 W, NC US","elevation":841.9}},{"type":"Feature","geometry":{"type":"Point","coordinates":[-82.3,35.98333]},"properties":{"id":"COOP:312270","name":"DAYBOOK, NC US","elevation":716.9}},{"type":"Feature","geometry":{"type":"Point","coordinates":[-78.81667,36.33333]},"properties":{"id":"COOP:312280","name":"DEEP CREEK, NC US"}},{"type":"Feature","geometry":{"type":"Point","coordinates":[-83.43333,35.46667]},"properties":{"id":"COOP:312285","name":"DEEP CREEK, NC US","elevation":566.9}},{"type":"Feature","geometry":{"type":"Point","coordinates":[-82.86667,35.43333]},"properties":{"id":"COOP:312370","name":"DIX CREEK, NC US","elevation":1000}},{"type":"Feature","geometry":{"type":"Point","coordinates":[-82.88333,35.43333]},"properties":{"id":"COOP:312372","name":"DIX CREEK TVA, NC US","elevation":1092.1}},{"type":"Feature","geometry":{"type":"Point","coordinates":[-82.86667,35.45]},"properties":{"id":"COOP:312373","name":"DIX CREEK, NC US","elevation":933}},{"type":"Feature","geometry":{"type":"Point","coordinates":[-80.71917,36.41194]},"properties":{"id":"COOP:312388","name":"DOBSON, NC US","elevation":391.7}},{"type":"Feature","geometry":{"type":"Point","coordinates":[-82.83333,35.71667]},"properties":{"id":"COOP:312396","name":"DOGGETT GAP, NC US","elevation":1158.8}},{"type":"Feature","geometry":{"type":"Point","coordinates":[-82.83333,35.71667]},"properties":{"id":"COOP:312397","name":"DOGGETT GAP 2, NC US","elevation":1064.1}},{"type":"Feature","geometry":{"type":"Point","coordinates":[-78.6881,35.3247]},"properties":{"id":"COOP:312500","name":"DUNN 4 NW, NC US","elevation":61}},{"type":"Feature","geometry":{"type":"Point","coordinates":[-78.9625,36.0425]},"properties":{"id":"COOP:312515","name":"DURHAM, NC US","elevation":121.9}},{"type":"Feature","geometry":{"type":"Point","coordinates":[-78.9636,36.0894]},"properties":{"id":"COOP:312518","name":"DURHAM 3 W, NC US","elevation":131.1}},{"type":"Feature","geometry":{"type":"Point","coordinates":[-83.03333,35.48333]},"properties":{"id":"COOP:312538","name":"EAGLENEST MOUNTAIN, NC US","elevation":1000}},{"type":"Feature","geometry":{"type":"Point","coordinates":[-79.63333,35.28333]},"properties":{"id":"COOP:312546","name":"EAGLE SPRINGS, NC US","elevation":203.9}},{"type":"Feature","geometry":{"type":"Point","coordinates":[-78.3158,34.3991]},"properties":{"id":"COOP:312560","name":"EAST ARCADIA 2 NE, NC US","elevation":15.5}},{"type":"Feature","geometry":{"type":"Point","coordinates":[-82.3891,35.2458]},"properties":{"id":"COOP:312574","name":"EAST FLAT ROCK 3 SE, NC US","elevation":527.3}},{"type":"Feature","geometry":{"type":"Point","coordinates":[-79.7433,36.4742]},"properties":{"id":"COOP:312631","name":"EDEN, NC US","elevation":206.7}},{"type":"Feature","geometry":{"type":"Point","coordinates":[-76.5516,36.0164]},"properties":{"id":"COOP:312635","name":"EDENTON, NC US","elevation":3}},{"type":"Feature","geometry":{"type":"Point","coordinates":[-82.33333,35.41667]},"properties":{"id":"COOP:312661","name":"EDNEYVILLE, NC US","elevation":683.1}},{"type":"Feature","geometry":{"type":"Point","coordinates":[-83.36667,35.45]},"properties":{"id":"COOP:312679","name":"ELA, NC US","elevation":558.1}},{"type":"Feature","geometry":{"type":"Point","coordinates":[-76.205,36.3096]},"properties":{"id":"COOP:312719","name":"ELIZABETH CITY, NC US","elevation":2.4}},{"type":"Feature","geometry":{"type":"Point","coordinates":[-76.175,36.26056]},"properties":{"id":"COOP:312724","name":"ELIZABETH CITY COAST GUARD AIR STATION, NC US","elevation":4}},{"type":"Feature","geometry":{"type":"Point","coordinates":[-78.6113,34.6272]},"properties":{"id":"COOP:312732","name":"ELIZABETHTOWN, NC US","elevation":36.6}},{"type":"Feature","geometry":{"type":"Point","coordinates":[-80.86396,36.25465]},"properties":{"id":"COOP:312740","name":"ELKIN, NC US","elevation":277.4}},{"type":"Feature","geometry":{"type":"Point","coordinates":[-81.4,36.06667]},"properties":{"id":"COOP:312757","name":"ELKVILLE, NC US","elevation":348.1}},{"type":"Feature","geometry":{"type":"Point","coordinates":[-77.675,36.1686]},"properties":{"id":"COOP:312827","name":"ENFIELD, NC US","elevation":33.5}},{"type":"Feature","geometry":{"type":"Point","coordinates":[-82.6535,35.5409]},"properties":{"id":"COOP:312837","name":"ENKA, NC US","elevation":624.8}},{"type":"Feature","geometry":{"type":"Point","coordinates":[-79.0355,34.3125]},"properties":{"id":"COOP:312933","name":"FAIR BLUFF, NC US","elevation":20.1}},{"type":"Feature","geometry":{"type":"Point","coordinates":[-76.3121,35.5361]},"properties":{"id":"COOP:312940","name":"FAIRFIELD, NC US","elevation":1.5}},{"type":"Feature","geometry":{"type":"Point","coordinates":[-78.15,35.1]},"properties":{"id":"COOP:312971","name":"FAISON, NC US","elevation":49.1}},{"type":"Feature","geometry":{"type":"Point","coordinates":[-78.6529,35.9808]},"properties":{"id":"COOP:312993","name":"FALLS LAKE, NC US","elevation":85.3}},{"type":"Feature","geometry":{"type":"Point","coordinates":[-78.97417,35.02667]},"properties":{"id":"COOP:313016","name":"FAYETTEVILLE 6 W, NC US","elevation":73.2}},{"type":"Feature","geometry":{"type":"Point","coordinates":[-78.8583,35.0583]},"properties":{"id":"COOP:313017","name":"FAYETTEVILLE PWC, NC US","elevation":29.3}},{"type":"Feature","geometry":{"type":"Point","coordinates":[-81.91352,36.25251]},"properties":{"id":"COOP:313072","name":"FLAT SPRINGS 1 E, NC US","elevation":1015}},{"type":"Feature","geometry":{"type":"Point","coordinates":[-82.4,36.03333]},"properties":{"id":"COOP:313089","name":"FLAT TOP MOUNTAIN, NC US","elevation":878.1}},{"type":"Feature","geometry":{"type":"Point","coordinates":[-82.36667,36.03333]},"properties":{"id":"COOP:313090","name":"FLAT TOP MOUNTAIN 2, NC US","elevation":719.9}},{"type":"Feature","geometry":{"type":"Point","coordinates":[-82.48333,35.45]},"properties":{"id":"COOP:313101","name":"FLETCHER 2 NE, NC US","elevation":667.5}},{"type":"Feature","geometry":{"type":"Point","coordinates":[-82.557,35.4267]},"properties":{"id":"COOP:313106","name":"FLETCHER 3 W, NC US","elevation":630.9}},{"type":"Feature","geometry":{"type":"Point","coordinates":[-83.8,35.45]},"properties":{"id":"COOP:313127","name":"FONTANA DAM, NC US","elevation":399.9}},{"type":"Feature","geometry":{"type":"Point","coordinates":[-81.9311,35.2652]},"properties":{"id":"COOP:313150","name":"FOREST CITY 6 SW, NC US","elevation":301.8}},{"type":"Feature","geometry":{"type":"Point","coordinates":[-81.9891,35.3125]},"properties":{"id":"COOP:313152","name":"FOREST CITY 8 W, NC US","elevation":258.8}},{"type":"Feature","geometry":{"type":"Point","coordinates":[-83.56667,35.5]},"properties":{"id":"COOP:313160","name":"FORNEY CREEK, NC US","elevation":665.1}},{"type":"Feature","geometry":{"type":"Point","coordinates":[-79.0239,35.1778]},"properties":{"id":"COOP:313168","name":"FORT BRAGG WATER PLA, NC US","elevation":48.8}},{"type":"Feature","geometry":{"type":"Point","coordinates":[-83.38333,35.18333]},"properties":{"id":"COOP:313216","name":"FRANKLIN, NC US","elevation":702}},{"type":"Feature","geometry":{"type":"Point","coordinates":[-83.36667,35.21667]},"properties":{"id":"COOP:313224","name":"FRANKLIN POWER HOUSE, NC US","elevation":609.9}},{"type":"Feature","geometry":{"type":"Point","coordinates":[-83.39294,35.18038]},"properties":{"id":"COOP:313228","name":"FRANKLIN, NC US","elevation":647.7}},{"type":"Feature","geometry":{"type":"Point","coordinates":[-78.45917,36.105]},"properties":{"id":"COOP:313232","name":"FRANKLINTON, NC US","elevation":114.3}},{"type":"Feature","geometry":{"type":"Point","coordinates":[-78.3916,34.7391]},"properties":{"id":"COOP:313236","name":"GARLAND 4 SW, NC US","elevation":17.1}},{"type":"Feature","geometry":{"type":"Point","coordinates":[-78.6608,35.6708]},"properties":{"id":"COOP:313238","name":"GARNER, NC US","elevation":100.6}},{"type":"Feature","geometry":{"type":"Point","coordinates":[-75.5825,35.26028]},"properties":{"id":"COOP:313333","name":"FRISCO, NC US","elevation":1.5}},{"type":"Feature","geometry":{"type":"Point","coordinates":[-75.6048,35.2512]},"properties":{"id":"COOP:313336","name":"FRISCO 2 NNE, NC US","elevation":0}},{"type":"Feature","geometry":{"type":"Point","coordinates":[-82.33333,35.51667]},"properties":{"id":"COOP:313344","name":"GARREN CREEK, NC US","elevation":798.9}},{"type":"Feature","geometry":{"type":"Point","coordinates":[-81.1436,35.2671]},"properties":{"id":"COOP:313356","name":"GASTONIA, NC US","elevation":213.4}},{"type":"Feature","geometry":{"type":"Point","coordinates":[-76.71667,36.43333]},"properties":{"id":"COOP:313364","name":"GATESVILLE, NC US","elevation":11.9}},{"type":"Feature","geometry":{"type":"Point","coordinates":[-82.05,35.86667]},"properties":{"id":"COOP:313427","name":"GILLESPIE GAP, NC US","elevation":860.1}},{"type":"Feature","geometry":{"type":"Point","coordinates":[-83.63333,35.06667]},"properties":{"id":"COOP:313437","name":"GLADE GAP, NC US","elevation":1158.8}},{"type":"Feature","geometry":{"type":"Point","coordinates":[-81.38333,36.35]},"properties":{"id":"COOP:313455","name":"GLENDALE SPRINGS, NC US","elevation":887}},{"type":"Feature","geometry":{"type":"Point","coordinates":[-83.15,35.2]},"properties":{"id":"COOP:313473","name":"GLENVILLE DAM, NC US","elevation":1083}},{"type":"Feature","geometry":{"type":"Point","coordinates":[-83.13333,35.23333]},"properties":{"id":"COOP:313478","name":"THORPE POWERHOUSE, NC US","elevation":708.1}},{"type":"Feature","geometry":{"type":"Point","coordinates":[-82.85,35.26667]},"properties":{"id":"COOP:313491","name":"GLOUCESTER GAP, NC US","elevation":951.9}},{"type":"Feature","geometry":{"type":"Point","coordinates":[-82.85,35.26667]},"properties":{"id":"COOP:313492","name":"GLOUCESTER GAP, NC US","elevation":951.9}},{"type":"Feature","geometry":{"type":"Point","coordinates":[-77.9647,35.3444]},"properties":{"id":"COOP:313510","name":"GOLDSBORO SEYMOUR JOHNSON AFB, NC US","elevation":33.2}},{"type":"Feature","geometry":{"type":"Point","coordinates":[-78.03333,35.35]},"properties":{"id":"COOP:313515","name":"GOLDSBORO 3 SSW, NC US","elevation":24.1}},{"type":"Feature","geometry":{"type":"Point","coordinates":[-79.3728,36.0503]},"properties":{"id":"COOP:313555","name":"GRAHAM 2 ENE, NC US","elevation":201.2}},{"type":"Feature","geometry":{"type":"Point","coordinates":[-81.8311,36.0963]},"properties":{"id":"COOP:313565","name":"GRANDFATHER MOUNTAIN, NC US","elevation":1609.3}},{"type":"Feature","geometry":{"type":"Point","coordinates":[-79.8047,36.0811]},"properties":{"id":"COOP:313625","name":"GREENSBORO WTP, NC US","elevation":233.2}},{"type":"Feature","geometry":{"type":"Point","coordinates":[-79.9432,36.0969]},"properties":{"id":"COOP:313630","name":"GREENSBORO AIRPORT, NC US","elevation":271.3}},{"type":"Feature","geometry":{"type":"Point","coordinates":[-77.3984,35.64]},"properties":{"id":"COOP:313638","name":"GREENVILLE, NC US","elevation":9.8}},{"type":"Feature","geometry":{"type":"Point","coordinates":[-77.38333,35.6]},"properties":{"id":"COOP:313643","name":"GREENVILLE 2, NC US","elevation":21}},{"type":"Feature","geometry":{"type":"Point","coordinates":[-77.38333,35.56667]},"properties":{"id":"COOP:313648","name":"GREENVILLE 3 S, NC US","elevation":21}},{"type":"Feature","geometry":{"type":"Point","coordinates":[-79.6922,34.8872]},"properties":{"id":"COOP:313784","name":"HAMLET, NC US","elevation":106.7}},{"type":"Feature","geometry":{"type":"Point","coordinates":[-75.71667,35.21667]},"properties":{"id":"COOP:313897","name":"HATTERAS, NC US","elevation":4.6}},{"type":"Feature","geometry":{"type":"Point","coordinates":[-84.03333,35.35]},"properties":{"id":"COOP:313917","name":"HAW KNOB STRATTON MD, NC US","elevation":1414.9}},{"type":"Feature","geometry":{"type":"Point","coordinates":[-79.383,36.0638]},"properties":{"id":"COOP:313919","name":"HAW RIVER 1 E, NC US","elevation":193.9}},{"type":"Feature","geometry":{"type":"Point","coordinates":[-79.36722,36.08694]},"properties":{"id":"COOP:313920","name":"HAW RIVER, NC US","elevation":143.3}},{"type":"Feature","geometry":{"type":"Point","coordinates":[-83.825,35.0533]},"properties":{"id":"COOP:313921","name":"HAYESVILLE 1 SW, NC US","elevation":579.1}},{"type":"Feature","geometry":{"type":"Point","coordinates":[-83.76667,35.08333]},"properties":{"id":"COOP:313922","name":"HAYESVILLE 4 NE, NC US","elevation":625.1}},{"type":"Feature","geometry":{"type":"Point","coordinates":[-82.91667,35.3]},"properties":{"id":"COOP:313925","name":"HAYWOOD GAP, NC US","elevation":1645.9}},{"type":"Feature","geometry":{"type":"Point","coordinates":[-81.50389,36.56306]},"properties":{"id":"COOP:313957","name":"HELTON, NC US","elevation":865.6}},{"type":"Feature","geometry":{"type":"Point","coordinates":[-78.4119,36.3481]},"properties":{"id":"COOP:313969","name":"HENDERSON 2 NNW, NC US","elevation":146.3}},{"type":"Feature","geometry":{"type":"Point","coordinates":[-82.4491,35.3297]},"properties":{"id":"COOP:313976","name":"HENDERSONVILLE 1 NE, NC US","elevation":658.4}},{"type":"Feature","geometry":{"type":"Point","coordinates":[-82.48333,35.31667]},"properties":{"id":"COOP:313981","name":"HENDERSONVILLE TVA, NC US","elevation":668.1}},{"type":"Feature","geometry":{"type":"Point","coordinates":[-82.56667,35.38333]},"properties":{"id":"COOP:313986","name":"HENDERSONVILLE 8 WNW, NC US","elevation":627.9}},{"type":"Feature","geometry":{"type":"Point","coordinates":[-81.35,35.75]},"properties":{"id":"COOP:314015","name":"HICKORY, NC US","elevation":355.1}},{"type":"Feature","geometry":{"type":"Point","coordinates":[-81.38229,35.74207]},"properties":{"id":"COOP:314020","name":"HICKORY FAA AIRPORT, NC US","elevation":358.1}},{"type":"Feature","geometry":{"type":"Point","coordinates":[-83.2,35.05]},"properties":{"id":"COOP:314050","name":"HIGHLANDS, NC US","elevation":1158.8}},{"type":"Feature","geometry":{"type":"Point","coordinates":[-83.19822,35.05646]},"properties":{"id":"COOP:314055","name":"HIGHLANDS, NC US","elevation":1173.5}},{"type":"Feature","geometry":{"type":"Point","coordinates":[-79.9722,35.9672]},"properties":{"id":"COOP:314063","name":"HIGH POINT, NC US","elevation":274.3}},{"type":"Feature","geometry":{"type":"Point","coordinates":[-84.18333,35.15]},"properties":{"id":"COOP:314122","name":"HIWASSEE DAM, NC US","elevation":454.2}},{"type":"Feature","geometry":{"type":"Point","coordinates":[-84.18333,35.15]},"properties":{"id":"COOP:314127","name":"HIWASSEE DAM 2, NC US","elevation":399.9}},{"type":"Feature","geometry":{"type":"Point","coordinates":[-76.58833,35.20528]},"properties":{"id":"COOP:314136","name":"HOBUCKEN BRIDGE, NC US","elevation":2.4}},{"type":"Feature","geometry":{"type":"Point","coordinates":[-77.30306,34.83583]},"properties":{"id":"COOP:314144","name":"HOFMANN FOREST, NC US","elevation":14.3}},{"type":"Feature","geometry":{"type":"Point","coordinates":[-82.566667,35.383333]},"properties":{"id":"COOP:314246","name":"HORSESHOE TVA 281, NC US","elevation":652.3}},{"type":"Feature","geometry":{"type":"Point","coordinates":[-82.8313,35.89536]},"properties":{"id":"COOP:314260","name":"HOT SPRINGS, NC US","elevation":410}},{"type":"Feature","geometry":{"type":"Point","coordinates":[-82.83333,35.9]},"properties":{"id":"COOP:314265","name":"HOT SPRINGS 2, NC US","elevation":451.1}},{"type":"Feature","geometry":{"type":"Point","coordinates":[-80.83333,35.38333]},"properties":{"id":"COOP:314328","name":"HUNTERSVILLE 2 S, NC US"}},{"type":"Feature","geometry":{"type":"Point","coordinates":[-83.95,35.2]},"properties":{"id":"COOP:314363","name":"HYATT CREEK, NC US","elevation":747.1}},{"type":"Feature","geometry":{"type":"Point","coordinates":[-81.45889,36.31194]},"properties":{"id":"COOP:314385","name":"IDLEWILD, NC US","elevation":883.9}},{"type":"Feature","geometry":{"type":"Point","coordinates":[-82.5,35.81667]},"properties":{"id":"COOP:314440","name":"IVY, NC US","elevation":655.9}},{"type":"Feature","geometry":{"type":"Point","coordinates":[-83.28333,35.4]},"properties":{"id":"COOP:314448","name":"JACK COVE, NC US","elevation":586.1}},{"type":"Feature","geometry":{"type":"Point","coordinates":[-77.4239,36.3967]},"properties":{"id":"COOP:314456","name":"JACKSON, NC US","elevation":39.6}},{"type":"Feature","geometry":{"type":"Point","coordinates":[-79.6772,35.1858]},"properties":{"id":"COOP:314464","name":"JACKSON SPRINGS 5 WNW, NC US","elevation":222.5}},{"type":"Feature","geometry":{"type":"Point","coordinates":[-77.401,34.7965]},"properties":{"id":"COOP:314471","name":"JACKSONVILLE EOC, NC US","elevation":5.2}},{"type":"Feature","geometry":{"type":"Point","coordinates":[-81.42964,36.41747]},"properties":{"id":"COOP:314496","name":"JEFFERSON, NC US","elevation":844.3}},{"type":"Feature","geometry":{"type":"Point","coordinates":[-78.033333,35]},"properties":{"id":"COOP:314619","name":"KENANSVILLE, NC US","elevation":33.5}},{"type":"Feature","geometry":{"type":"Point","coordinates":[-75.66667,36.01667]},"properties":{"id":"COOP:314649","name":"KILL DEVIL HILLS N M, NC US","elevation":3}},{"type":"Feature","geometry":{"type":"Point","coordinates":[-80.3624,36.2838]},"properties":{"id":"COOP:314675","name":"KING, NC US","elevation":268.2}},{"type":"Feature","geometry":{"type":"Point","coordinates":[-77.5432,35.1967]},"properties":{"id":"COOP:314684","name":"KINSTON 7 SE, NC US","elevation":7.3}},{"type":"Feature","geometry":{"type":"Point","coordinates":[-77.5722,35.2975]},"properties":{"id":"COOP:314689","name":"KINSTON AG RESEARCH, NC US","elevation":18.3}},{"type":"Feature","geometry":{"type":"Point","coordinates":[-82.2,35.4]},"properties":{"id":"COOP:314762","name":"LAKE LURE, NC US","elevation":368.8}},{"type":"Feature","geometry":{"type":"Point","coordinates":[-82.1877,35.4205]},"properties":{"id":"COOP:314764","name":"LAKE LURE 2, NC US","elevation":317}},{"type":"Feature","geometry":{"type":"Point","coordinates":[-78.83333,36.15]},"properties":{"id":"COOP:314772","name":"LAKE MICHIE, NC US","elevation":100.9}},{"type":"Feature","geometry":{"type":"Point","coordinates":[-78.68333,35.75]},"properties":{"id":"COOP:314780","name":"LAKE RALEIGH, NC US","elevation":92}},{"type":"Feature","geometry":{"type":"Point","coordinates":[-82.9509,35.0966]},"properties":{"id":"COOP:314788","name":"LAKE TOXAWAY 2 SW, NC US","elevation":975.4}},{"type":"Feature","geometry":{"type":"Point","coordinates":[-83.08333,35.15]},"properties":{"id":"COOP:314844","name":"LAUREL MOUNTAIN, NC US","elevation":1299.1}},{"type":"Feature","geometry":{"type":"Point","coordinates":[-81.26667,36.41667]},"properties":{"id":"COOP:314852","name":"LAUREL SPRINGS 1 MI, NC US","elevation":900.1}},{"type":"Feature","geometry":{"type":"Point","coordinates":[-79.4664,34.7508]},"properties":{"id":"COOP:314860","name":"LAURINBURG, NC US","elevation":64}},{"type":"Feature","geometry":{"type":"Point","coordinates":[-82.7,35.65]},"properties":{"id":"COOP:314930","name":"LEICESTER, NC US","elevation":662}},{"type":"Feature","geometry":{"type":"Point","coordinates":[-81.5374,35.9147]},"properties":{"id":"COOP:314938","name":"LENOIR, NC US","elevation":352}},{"type":"Feature","geometry":{"type":"Point","coordinates":[-84.15,35.05]},"properties":{"id":"COOP:314946","name":"LETITIA, NC US","elevation":552}},{"type":"Feature","geometry":{"type":"Point","coordinates":[-77.1708,36.1325]},"properties":{"id":"COOP:314962","name":"LEWISTON, NC US","elevation":15.2}},{"type":"Feature","geometry":{"type":"Point","coordinates":[-80.2597,35.8458]},"properties":{"id":"COOP:314970","name":"LEXINGTON, NC US","elevation":231.6}},{"type":"Feature","geometry":{"type":"Point","coordinates":[-80.26667,35.9]},"properties":{"id":"COOP:314975","name":"LEXINGTON 7 N, NC US","elevation":262.1}},{"type":"Feature","geometry":{"type":"Point","coordinates":[-81.3296,35.4606]},"properties":{"id":"COOP:314996","name":"LINCOLNTON 4 W, NC US","elevation":270.4}},{"type":"Feature","geometry":{"type":"Point","coordinates":[-81.2799,35.48]},"properties":{"id":"COOP:314997","name":"LINCOLNTON 2 NW, NC US","elevation":245.4}},{"type":"Feature","geometry":{"type":"Point","coordinates":[-83.95,35.38333]},"properties":{"id":"COOP:315037","name":"LITTLE SANTEETLAH CR, NC US","elevation":1417.9}},{"type":"Feature","geometry":{"type":"Point","coordinates":[-82.1,35.85]},"properties":{"id":"COOP:315045","name":"LITTLE SWITZERLAND, NC US","elevation":1083}},{"type":"Feature","geometry":{"type":"Point","coordinates":[-78.5464,34.0106]},"properties":{"id":"COOP:315116","name":"LONGWOOD, NC US","elevation":12.2}},{"type":"Feature","geometry":{"type":"Point","coordinates":[-78.3039,36.1028]},"properties":{"id":"COOP:315123","name":"LOUISBURG, NC US","elevation":79.2}},{"type":"Feature","geometry":{"type":"Point","coordinates":[-79.0022,34.3902]},"properties":{"id":"COOP:315175","name":"LUMBER RIVER STATE PARK, NC US","elevation":29.3}},{"type":"Feature","geometry":{"type":"Point","coordinates":[-79.025,34.6269]},"properties":{"id":"COOP:315177","name":"LUMBERTON, NC US","elevation":34.1}},{"type":"Feature","geometry":{"type":"Point","coordinates":[-79.0591,34.608]},"properties":{"id":"COOP:315182","name":"LUMBERTON REGIONAL AIRPORT, NC US","elevation":36.9}},{"type":"Feature","geometry":{"type":"Point","coordinates":[-79.0239,35.1778]},"properties":{"id":"COOP:315275","name":"FORT BRAGG WATER PLA, NC US","elevation":48.8}},{"type":"Feature","geometry":{"type":"Point","coordinates":[-78.9,36.16667]},"properties":{"id":"COOP:315283","name":"MANGUMS STORE 4 WSW, NC US","elevation":116.1}},{"type":"Feature","geometry":{"type":"Point","coordinates":[-75.68333,35.91667]},"properties":{"id":"COOP:315300","name":"MANTEO, NC US","elevation":3}},{"type":"Feature","geometry":{"type":"Point","coordinates":[-75.7,35.9173]},"properties":{"id":"COOP:315303","name":"MANTEO AIRPORT, NC US","elevation":4}},{"type":"Feature","geometry":{"type":"Point","coordinates":[-82.95,35.75]},"properties":{"id":"COOP:315312","name":"MAPLE SPRINGS GAP, NC US","elevation":1235}},{"type":"Feature","geometry":{"type":"Point","coordinates":[-82.93333,35.73333]},"properties":{"id":"COOP:315313","name":"MAPLE SPRING GAP 2, NC US","elevation":1156.1}},{"type":"Feature","geometry":{"type":"Point","coordinates":[-82.0084,35.6847]},"properties":{"id":"COOP:315340","name":"MARION, NC US","elevation":429.8}},{"type":"Feature","geometry":{"type":"Point","coordinates":[-82.66573,35.80336]},"properties":{"id":"COOP:315356","name":"MARSHALL, NC US","elevation":585.2}},{"type":"Feature","geometry":{"type":"Point","coordinates":[-81.8,36.25]},"properties":{"id":"COOP:315368","name":"MAST, NC US","elevation":816.9}},{"type":"Feature","geometry":{"type":"Point","coordinates":[-82.95,35.81667]},"properties":{"id":"COOP:315402","name":"MAX PATCH MOUNTAIN, TN US","elevation":1225.3}},{"type":"Feature","geometry":{"type":"Point","coordinates":[-77.30306,34.83583]},"properties":{"id":"COOP:315420","name":"HOFMANN FOREST, NC US","elevation":14.3}},{"type":"Feature","geometry":{"type":"Point","coordinates":[-81.0777,35.2625]},"properties":{"id":"COOP:315424","name":"MCADENVILLE, NC US","elevation":185.9}},{"type":"Feature","geometry":{"type":"Point","coordinates":[-78.7,35.66667]},"properties":{"id":"COOP:315445","name":"MC CULLERS 1 W, NC US","elevation":134.1}},{"type":"Feature","geometry":{"type":"Point","coordinates":[-82.46667,35.95]},"properties":{"id":"COOP:315480","name":"MCKINNEY GAP, NC US","elevation":1207.9}},{"type":"Feature","geometry":{"type":"Point","coordinates":[-76.63333,35.2]},"properties":{"id":"COOP:315573","name":"MESIC, NC US","elevation":3}},{"type":"Feature","geometry":{"type":"Point","coordinates":[-82.56667,35.38333]},"properties":{"id":"COOP:315683","name":"MILLS RIVER, NC US","elevation":655.9}},{"type":"Feature","geometry":{"type":"Point","coordinates":[-80.49777,35.84219]},"properties":{"id":"COOP:315743","name":"MOCKSVILLE 5 SE, NC US","elevation":207.3}},{"type":"Feature","geometry":{"type":"Point","coordinates":[-79.05,35.58333]},"properties":{"id":"COOP:315763","name":"MONCURE 3 SE, NC US","elevation":61.6}},{"type":"Feature","geometry":{"type":"Point","coordinates":[-80.5233,34.9797]},"properties":{"id":"COOP:315771","name":"MONROE 2 SE, NC US","elevation":167.6}},{"type":"Feature","geometry":{"type":"Point","coordinates":[-82.31667,35.65]},"properties":{"id":"COOP:315796","name":"MONTREAT, NC US","elevation":793.1}},{"type":"Feature","geometry":{"type":"Point","coordinates":[-80.8391,35.5938]},"properties":{"id":"COOP:315814","name":"MOORESVILLE 2 WNW, NC US","elevation":265.2}},{"type":"Feature","geometry":{"type":"Point","coordinates":[-78.1094,34.458]},"properties":{"id":"COOP:315820","name":"MOORES CREEK NATIONAL BATTLEFIELD, NC US","elevation":6.7}},{"type":"Feature","geometry":{"type":"Point","coordinates":[-76.7357,34.7336]},"properties":{"id":"COOP:315830","name":"MOREHEAD CITY 2 WNW, NC US","elevation":3}},{"type":"Feature","geometry":{"type":"Point","coordinates":[-81.7211,35.6808]},"properties":{"id":"COOP:315831","name":"MORGANTON AG 4 E, NC US","elevation":378}},{"type":"Feature","geometry":{"type":"Point","coordinates":[-81.67273,35.72972]},"properties":{"id":"COOP:315838","name":"MORGANTON, NC US","elevation":359.7}},{"type":"Feature","geometry":{"type":"Point","coordinates":[-81.78333,35.98333]},"properties":{"id":"COOP:315856","name":"MORTIMER, NC US","elevation":458.1}},{"type":"Feature","geometry":{"type":"Point","coordinates":[-80.6508,36.4992]},"properties":{"id":"COOP:315890","name":"MOUNT AIRY 2 W, NC US","elevation":317.3}},{"type":"Feature","geometry":{"type":"Point","coordinates":[-80.0636,35.2078]},"properties":{"id":"COOP:315898","name":"MOUNT GILEAD 4 W, NC US","elevation":67.1}},{"type":"Feature","geometry":{"type":"Point","coordinates":[-80.9868,35.3338]},"properties":{"id":"COOP:315913","name":"MOUNT HOLLY 4 NE, NC US","elevation":185.9}},{"type":"Feature","geometry":{"type":"Point","coordinates":[-82.26667,35.76667]},"properties":{"id":"COOP:315921","name":"MOUNT MITCHELL TVA, NC US","elevation":2023.9}},{"type":"Feature","geometry":{"type":"Point","coordinates":[-82.28333,35.73333]},"properties":{"id":"COOP:315922","name":"MOUNT MITCHELL 2 SSW, NC US","elevation":1991.9}},{"type":"Feature","geometry":{"type":"Point","coordinates":[-82.2711,35.7585]},"properties":{"id":"COOP:315923","name":"MOUNT MITCHELL, NC US","elevation":1902}},{"type":"Feature","geometry":{"type":"Point","coordinates":[-78.06667,35.2]},"properties":{"id":"COOP:315929","name":"MOUNT OLIVE, NC US","elevation":52.1}},{"type":"Feature","geometry":{"type":"Point","coordinates":[-77.98908,35.13763]},"properties":{"id":"COOP:315930","name":"MOUNT OLIVE 6 SE, NC US","elevation":49.4}},{"type":"Feature","geometry":{"type":"Point","coordinates":[-82.75,35.43333]},"properties":{"id":"COOP:315937","name":"MOUNT PISGAH, NC US","elevation":1574}},{"type":"Feature","geometry":{"type":"Point","coordinates":[-80.4308,35.4116]},"properties":{"id":"COOP:315945","name":"MOUNT PLEASANT, NC US","elevation":225.6}},{"type":"Feature","geometry":{"type":"Point","coordinates":[-83.08333,35.71667]},"properties":{"id":"COOP:315955","name":"MOUNT STERLING, NC US","elevation":890.9}},{"type":"Feature","geometry":{"type":"Point","coordinates":[-77.0803,36.4521]},"properties":{"id":"COOP:315996","name":"MURFREESBORO, NC US","elevation":30.5}},{"type":"Feature","geometry":{"type":"Point","coordinates":[-83.9684,35.0714]},"properties":{"id":"COOP:316001","name":"MURPHY 4 ESE, NC US","elevation":487.7}},{"type":"Feature","geometry":{"type":"Point","coordinates":[-83.81667,35]},"properties":{"id":"COOP:316009","name":"MYERS CHAPEL, NC US","elevation":598}},{"type":"Feature","geometry":{"type":"Point","coordinates":[-83.68333,35.26667]},"properties":{"id":"COOP:316031","name":"NANTAHALA, NC US","elevation":613}},{"type":"Feature","geometry":{"type":"Point","coordinates":[-83.65,35.2]},"properties":{"id":"COOP:316036","name":"NANTAHALA DAM, NC US","elevation":900.1}},{"type":"Feature","geometry":{"type":"Point","coordinates":[-77.96667,35.96667]},"properties":{"id":"COOP:316044","name":"NASHVILLE, NC US","elevation":64}},{"type":"Feature","geometry":{"type":"Point","coordinates":[-83.53333,35.33333]},"properties":{"id":"COOP:316071","name":"NEEDMORE, NC US","elevation":558.1}},{"type":"Feature","geometry":{"type":"Point","coordinates":[-78.56667,35.91667]},"properties":{"id":"COOP:316091","name":"NEUSE 2 NE, NC US","elevation":85.3}},{"type":"Feature","geometry":{"type":"Point","coordinates":[-76.877,34.7763]},"properties":{"id":"COOP:316096","name":"NEWPORT MOREHEAD CITY WEATHER FORECAST OFFICE, NC US","elevation":9.1}},{"type":"Feature","geometry":{"type":"Point","coordinates":[-77.08333,35.13333]},"properties":{"id":"COOP:316103","name":"NEW BERN 3 NW, NC US","elevation":3}},{"type":"Feature","geometry":{"type":"Point","coordinates":[-77.048,35.0677]},"properties":{"id":"COOP:316108","name":"NEW BERN CRAVEN CO REGIONAL AIRPORT, NC US","elevation":5.8}},{"type":"Feature","geometry":{"type":"Point","coordinates":[-78.9158,35.6808]},"properties":{"id":"COOP:316122","name":"NEW HILL, NC US","elevation":97.5}},{"type":"Feature","geometry":{"type":"Point","coordinates":[-76.21083,35.44861]},"properties":{"id":"COOP:316135","name":"NEW HOLLAND, NC US","elevation":0.6}},{"type":"Feature","geometry":{"type":"Point","coordinates":[-79.06667,35.65]},"properties":{"id":"COOP:316139","name":"NEW HOPE DAM, NC US","elevation":95.1}},{"type":"Feature","geometry":{"type":"Point","coordinates":[-83.5,35.5]},"properties":{"id":"COOP:316185","name":"NOLAND CREEK, NC US","elevation":769}},{"type":"Feature","geometry":{"type":"Point","coordinates":[-82.33333,35.7]},"properties":{"id":"COOP:316231","name":"NORTH FORK, NC US","elevation":842.8}},{"type":"Feature","geometry":{"type":"Point","coordinates":[-82.34446,35.66308]},"properties":{"id":"COOP:316236","name":"NORTH FORK 2, NC US","elevation":755.9}},{"type":"Feature","geometry":{"type":"Point","coordinates":[-81.1536,36.1638]},"properties":{"id":"COOP:316256","name":"NORTH WILKESBORO, NC US","elevation":341.4}},{"type":"Feature","geometry":{"type":"Point","coordinates":[-80.9775,36.07306]},"properties":{"id":"COOP:316261","name":"N WILKESBORO 11 SE, NC US","elevation":320}},{"type":"Feature","geometry":{"type":"Point","coordinates":[-80.1,35.23333]},"properties":{"id":"COOP:316274","name":"NORWOOD 1 ENE, NC US","elevation":88.4}},{"type":"Feature","geometry":{"type":"Point","coordinates":[-80.18333,35.16667]},"properties":{"id":"COOP:316275","name":"NORWOOD 6 SW, NC US","elevation":75.9}},{"type":"Feature","geometry":{"type":"Point","coordinates":[-80.12444,35.2475]},"properties":{"id":"COOP:316278","name":"NORWOOD 2 NE, NC US","elevation":88.4}},{"type":"Feature","geometry":{"type":"Point","coordinates":[-80.2275,35.22056]},"properties":{"id":"COOP:316289","name":"NORWOOD 6 W, NC US","elevation":137.2}},{"type":"Feature","geometry":{"type":"Point","coordinates":[-83.3056,35.5157]},"properties":{"id":"COOP:316341","name":"OCONALUFTEE, NC US","elevation":621.8}},{"type":"Feature","geometry":{"type":"Point","coordinates":[-75.9872,35.1075]},"properties":{"id":"COOP:316349","name":"OCRACOKE, NC US","elevation":1.2}},{"type":"Feature","geometry":{"type":"Point","coordinates":[-82.1236,35.6672]},"properties":{"id":"COOP:316380","name":"OLD FORT AG 3 W, NC US","elevation":434.3}},{"type":"Feature","geometry":{"type":"Point","coordinates":[-82.18333,35.61667]},"properties":{"id":"COOP:316384","name":"OLD FORT, NC US","elevation":442}},{"type":"Feature","geometry":{"type":"Point","coordinates":[-77.5113,34.925]},"properties":{"id":"COOP:316422","name":"RICHLANDS, NC US","elevation":6.1}},{"type":"Feature","geometry":{"type":"Point","coordinates":[-76.7,35.03333]},"properties":{"id":"COOP:316452","name":"ORIENTAL, NC US","elevation":3}},{"type":"Feature","geometry":{"type":"Point","coordinates":[-83.33333,35.08333]},"properties":{"id":"COOP:316483","name":"OTTO, NC US","elevation":702}},{"type":"Feature","geometry":{"type":"Point","coordinates":[-82.96667,35.21667]},"properties":{"id":"COOP:316499","name":"OWENS GAP, NC US","elevation":1074.1}},{"type":"Feature","geometry":{"type":"Point","coordinates":[-78.61667,36.3]},"properties":{"id":"COOP:316507","name":"OXFORD 1 E, NC US","elevation":152.4}},{"type":"Feature","geometry":{"type":"Point","coordinates":[-78.6108,36.3023]},"properties":{"id":"COOP:316510","name":"OXFORD AG, NC US","elevation":152.4}},{"type":"Feature","geometry":{"type":"Point","coordinates":[-81.66667,36.45]},"properties":{"id":"COOP:316565","name":"PARKER 1 E, NC US","elevation":1204.9}},{"type":"Feature","geometry":{"type":"Point","coordinates":[-81.565,35.9983]},"properties":{"id":"COOP:316602","name":"PATTERSON, NC US","elevation":387.1}},{"type":"Feature","geometry":{"type":"Point","coordinates":[-77.0859,35.0556]},"properties":{"id":"COOP:316676","name":"PERRYTOWN, NC US","elevation":8.5}},{"type":"Feature","geometry":{"type":"Point","coordinates":[-80.3699,36.1558]},"properties":{"id":"COOP:316686","name":"PFAFFTOWN, NC US","elevation":289.6}},{"type":"Feature","geometry":{"type":"Point","coordinates":[-79.46667,35.2]},"properties":{"id":"COOP:316742","name":"PINEHURST SOUTHERN P, NC US","elevation":167.9}},{"type":"Feature","geometry":{"type":"Point","coordinates":[-82.78333,35.35]},"properties":{"id":"COOP:316778","name":"PINK BEDS, NC US","elevation":1003.1}},{"type":"Feature","geometry":{"type":"Point","coordinates":[-82.6475,35.2719]},"properties":{"id":"COOP:316805","name":"PISGAH FOREST 3 NE, NC US","elevation":667.5}},{"type":"Feature","geometry":{"type":"Point","coordinates":[-82,36.03333]},"properties":{"id":"COOP:316845","name":"PLUMTREE, NC US","elevation":885.1}},{"type":"Feature","geometry":{"type":"Point","coordinates":[-76.6592,35.8723]},"properties":{"id":"COOP:316853","name":"PLYMOUTH 5 E, NC US","elevation":6.1}},{"type":"Feature","geometry":{"type":"Point","coordinates":[-82.25,35.63333]},"properties":{"id":"COOP:316862","name":"POINT LOOKOUT, NC US","elevation":732.1}},{"type":"Feature","geometry":{"type":"Point","coordinates":[-80.16389,35.02028]},"properties":{"id":"COOP:316867","name":"POLKTON 2 NE, NC US","elevation":93}},{"type":"Feature","geometry":{"type":"Point","coordinates":[-79.00889,35.17389]},"properties":{"id":"COOP:316891","name":"FAYETTEVILLE POPE AFB, NC US","elevation":66.4}},{"type":"Feature","geometry":{"type":"Point","coordinates":[-82.35,36.06667]},"properties":{"id":"COOP:316899","name":"POPLAR, NC US","elevation":609.9}},{"type":"Feature","geometry":{"type":"Point","coordinates":[-81.1,36.05]},"properties":{"id":"COOP:316908","name":"PORES KNOB 4 ESE, NC US","elevation":502.9}},{"type":"Feature","geometry":{"type":"Point","coordinates":[-83.71667,35.46667]},"properties":{"id":"COOP:316976","name":"PROCTOR, NC US","elevation":531}},{"type":"Feature","geometry":{"type":"Point","coordinates":[-82.9,35.18333]},"properties":{"id":"COOP:317035","name":"QUEBEC, NC US","elevation":793.1}},{"type":"Feature","geometry":{"type":"Point","coordinates":[-82.88333,35.13333]},"properties":{"id":"COOP:317037","name":"QUEBEC, NC US","elevation":792.5}},{"type":"Feature","geometry":{"type":"Point","coordinates":[-79.219,34.987]},"properties":{"id":"COOP:317056","name":"RAEFORD, NC US","elevation":76.2}},{"type":"Feature","geometry":{"type":"Point","coordinates":[-78.7819,35.8923]},"properties":{"id":"COOP:317069","name":"RALEIGH AIRPORT, NC US","elevation":126.8}},{"type":"Feature","geometry":{"type":"Point","coordinates":[-78.6838,35.7294]},"properties":{"id":"COOP:317074","name":"RALEIGH 4 SW, NC US","elevation":128}},{"type":"Feature","geometry":{"type":"Point","coordinates":[-78.6988,35.7944]},"properties":{"id":"COOP:317079","name":"RALEIGH STATE UNIVERSITY, NC US","elevation":121.9}},{"type":"Feature","geometry":{"type":"Point","coordinates":[-79.65,35.63333]},"properties":{"id":"COOP:317089","name":"RAMSEUR 6 S, NC US","elevation":134.1}},{"type":"Feature","geometry":{"type":"Point","coordinates":[-79.7917,35.8222]},"properties":{"id":"COOP:317097","name":"RANDLEMAN, NC US","elevation":246.9}},{"type":"Feature","geometry":{"type":"Point","coordinates":[-83.36667,35.33333]},"properties":{"id":"COOP:317121","name":"RAVEN MOUNTAIN, NC US","elevation":1373.1}},{"type":"Feature","geometry":{"type":"Point","coordinates":[-83.3,35.51667]},"properties":{"id":"COOP:317129","name":"RAVENSFORD, NC US","elevation":641}},{"type":"Feature","geometry":{"type":"Point","coordinates":[-79.1622,34.8122]},"properties":{"id":"COOP:317165","name":"RED SPRINGS 1 SE, NC US","elevation":54.9}},{"type":"Feature","geometry":{"type":"Point","coordinates":[-76.9153,35.131]},"properties":{"id":"COOP:317170","name":"REELSBORO, NC US","elevation":13.7}},{"type":"Feature","geometry":{"type":"Point","coordinates":[-81.83333,36.33333]},"properties":{"id":"COOP:317185","name":"REESE, NC US","elevation":1012.9}},{"type":"Feature","geometry":{"type":"Point","coordinates":[-79.63333,36.35]},"properties":{"id":"COOP:317197","name":"REIDSVILLE, NC US","elevation":253}},{"type":"Feature","geometry":{"type":"Point","coordinates":[-79.6944,36.3796]},"properties":{"id":"COOP:317202","name":"REIDSVILLE 2 NW, NC US","elevation":271.3}},{"type":"Feature","geometry":{"type":"Point","coordinates":[-81.4372,35.7747]},"properties":{"id":"COOP:317229","name":"RHODHISS HYDRO PLANT, NC US","elevation":297.5}},{"type":"Feature","geometry":{"type":"Point","coordinates":[-81.71667,36.33333]},"properties":{"id":"COOP:317252","name":"RICH MOUNTAIN GAP, NC US","elevation":1327.1}},{"type":"Feature","geometry":{"type":"Point","coordinates":[-77.6717,36.4783]},"properties":{"id":"COOP:317319","name":"ROANOKE RAPIDS, NC US","elevation":64}},{"type":"Feature","geometry":{"type":"Point","coordinates":[-80.99539,36.40869]},"properties":{"id":"COOP:317324","name":"ROARING GAP 1 NW, NC US","elevation":859.5}},{"type":"Feature","geometry":{"type":"Point","coordinates":[-83.70013,35.3763]},"properties":{"id":"COOP:317344","name":"ROBBINSVILLE AG 5 NE, NC US","elevation":710.2}},{"type":"Feature","geometry":{"type":"Point","coordinates":[-83.8128,35.2989]},"properties":{"id":"COOP:317346","name":"ROBBINSVILLE 1 S, NC US","elevation":691.9}},{"type":"Feature","geometry":{"type":"Point","coordinates":[-82.8,35.58333]},"properties":{"id":"COOP:317387","name":"ROCKYFACE MOUNTAIN, NC US","elevation":946.1}},{"type":"Feature","geometry":{"type":"Point","coordinates":[-77.8189,35.9516]},"properties":{"id":"COOP:317395","name":"ROCKY MOUNT, NC US","elevation":39.6}},{"type":"Feature","geometry":{"type":"Point","coordinates":[-77.8,35.96667]},"properties":{"id":"COOP:317398","name":"ROCKY MOUNT FAA AIRPORT, NC US","elevation":25.9}},{"type":"Feature","geometry":{"type":"Point","coordinates":[-77.6806,35.8936]},"properties":{"id":"COOP:317400","name":"ROCKY MOUNT 8 ESE, NC US","elevation":33.5}},{"type":"Feature","geometry":{"type":"Point","coordinates":[-82.8204,35.137]},"properties":{"id":"COOP:317486","name":"ROSMAN, NC US","elevation":664.5}},{"type":"Feature","geometry":{"type":"Point","coordinates":[-78.85694,36.21194]},"properties":{"id":"COOP:317499","name":"ROUGEMONT, NC US","elevation":164.6}},{"type":"Feature","geometry":{"type":"Point","coordinates":[-80.6225,35.6967]},"properties":{"id":"COOP:317508","name":"SALISBURY 9 WNW, NC US","elevation":221}},{"type":"Feature","geometry":{"type":"Point","coordinates":[-78.8858,36.3464]},"properties":{"id":"COOP:317516","name":"ROXBORO 7 ESE, NC US","elevation":216.4}},{"type":"Feature","geometry":{"type":"Point","coordinates":[-80.3069,36.2333]},"properties":{"id":"COOP:317548","name":"RURAL HALL, NC US","elevation":292.6}},{"type":"Feature","geometry":{"type":"Point","coordinates":[-82.46667,35.25]},"properties":{"id":"COOP:317555","name":"RUSH MOUNTAIN, NC US","elevation":900.1}},{"type":"Feature","geometry":{"type":"Point","coordinates":[-80.4822,35.6836]},"properties":{"id":"COOP:317615","name":"SALISBURY, NC US","elevation":213.4}},{"type":"Feature","geometry":{"type":"Point","coordinates":[-80.6225,35.6967]},"properties":{"id":"COOP:317618","name":"SALISBURY 9 WNW, NC US","elevation":221}},{"type":"Feature","geometry":{"type":"Point","coordinates":[-82.56667,35.95]},"properties":{"id":"COOP:317630","name":"SAMS GAP, NC US","elevation":1125}},{"type":"Feature","geometry":{"type":"Point","coordinates":[-79.11667,35.48333]},"properties":{"id":"COOP:317654","name":"SANFORD 4 ESE, NC US","elevation":112.5}},{"type":"Feature","geometry":{"type":"Point","coordinates":[-79.0464,35.5347]},"properties":{"id":"COOP:317656","name":"SANFORD 8 NE, NC US","elevation":79.9}},{"type":"Feature","geometry":{"type":"Point","coordinates":[-83.88333,35.38333]},"properties":{"id":"COOP:317659","name":"SANTEETLAH DAM, NC US","elevation":595}},{"type":"Feature","geometry":{"type":"Point","coordinates":[-83.9,35.35]},"properties":{"id":"COOP:317664","name":"SANTEETLAH GAP, NC US","elevation":848}},{"type":"Feature","geometry":{"type":"Point","coordinates":[-77.4231,36.1369]},"properties":{"id":"COOP:317725","name":"SCOTLAND NECK NUMBER 2, NC US","elevation":30.5}},{"type":"Feature","geometry":{"type":"Point","coordinates":[-77.38417,36.20944]},"properties":{"id":"COOP:317727","name":"SCOTLAND NECK, NC US","elevation":1.8}},{"type":"Feature","geometry":{"type":"Point","coordinates":[-80.76667,36.01667]},"properties":{"id":"COOP:317789","name":"SETTLE, NC US","elevation":214}},{"type":"Feature","geometry":{"type":"Point","coordinates":[-78.3894,33.9283]},"properties":{"id":"COOP:317813","name":"SHALLOTTE AG, NC US","elevation":6.1}},{"type":"Feature","geometry":{"type":"Point","coordinates":[-78.45,34]},"properties":{"id":"COOP:317817","name":"SHALLOTTE 4 WNW, NC US","elevation":11.9}},{"type":"Feature","geometry":{"type":"Point","coordinates":[-81.57096,35.31099]},"properties":{"id":"COOP:317845","name":"SHELBY 2 NW, NC US","elevation":249.9}},{"type":"Feature","geometry":{"type":"Point","coordinates":[-81.55,35.26667]},"properties":{"id":"COOP:317850","name":"SHELBY 2, NC US","elevation":237.7}},{"type":"Feature","geometry":{"type":"Point","coordinates":[-81.9311,35.2652]},"properties":{"id":"COOP:317906","name":"FOREST CITY 6 SW, NC US","elevation":301.8}},{"type":"Feature","geometry":{"type":"Point","coordinates":[-79.4622,35.7606]},"properties":{"id":"COOP:317924","name":"SILER CITY 2 N, NC US","elevation":185.9}},{"type":"Feature","geometry":{"type":"Point","coordinates":[-77.81667,34.78333]},"properties":{"id":"COOP:317974","name":"SLOAN 3 S, NC US","elevation":14.9}},{"type":"Feature","geometry":{"type":"Point","coordinates":[-78.3443,35.5171]},"properties":{"id":"COOP:317994","name":"SMITHFIELD, NC US","elevation":45.7}},{"type":"Feature","geometry":{"type":"Point","coordinates":[-81.93333,36.11667]},"properties":{"id":"COOP:318019","name":"SMOKY GAP, NC US","elevation":1122}},{"type":"Feature","geometry":{"type":"Point","coordinates":[-81.7,36.33333]},"properties":{"id":"COOP:318029","name":"SNAKE MOUNTAIN, NC US","elevation":1702}},{"type":"Feature","geometry":{"type":"Point","coordinates":[-77.4,34.55]},"properties":{"id":"COOP:318037","name":"SNEADS FERRY 2 ENE, NC US","elevation":3}},{"type":"Feature","geometry":{"type":"Point","coordinates":[-82.15,35.96667]},"properties":{"id":"COOP:318053","name":"SNOW CREEK, NC US","elevation":805}},{"type":"Feature","geometry":{"type":"Point","coordinates":[-77.6843,35.452]},"properties":{"id":"COOP:318060","name":"SNOW HILL 2 SW, NC US","elevation":29}},{"type":"Feature","geometry":{"type":"Point","coordinates":[-77.6668,35.4551]},"properties":{"id":"COOP:318066","name":"SNOW HILL WASTE WATER TREAMENT PLANT, NC US","elevation":12.5}},{"type":"Feature","geometry":{"type":"Point","coordinates":[-79.43333,35.16667]},"properties":{"id":"COOP:318089","name":"SOUTHERN PINES 2 W, NC US","elevation":153}},{"type":"Feature","geometry":{"type":"Point","coordinates":[-78.0077,33.9947]},"properties":{"id":"COOP:318113","name":"SOUTHPORT 5 N, NC US","elevation":6.1}},{"type":"Feature","geometry":{"type":"Point","coordinates":[-81.15275,36.45927]},"properties":{"id":"COOP:318158","name":"SPARTA 3.5 SSW, NC US","elevation":917.8}},{"type":"Feature","geometry":{"type":"Point","coordinates":[-79.7433,36.4742]},"properties":{"id":"COOP:318196","name":"EDEN, NC US","elevation":206.7}},{"type":"Feature","geometry":{"type":"Point","coordinates":[-83.2,35.61667]},"properties":{"id":"COOP:318216","name":"SPRUCE MOUNTAIN, NC US","elevation":1403}},{"type":"Feature","geometry":{"type":"Point","coordinates":[-82.0019,35.9325]},"properties":{"id":"COOP:318221","name":"SPRUCE PINE 2 NE, NC US","elevation":868.7}},{"type":"Feature","geometry":{"type":"Point","coordinates":[-82.06667,35.9]},"properties":{"id":"COOP:318224","name":"SPRUCE PINE, NC US","elevation":798.9}},{"type":"Feature","geometry":{"type":"Point","coordinates":[-82.08333,35.88333]},"properties":{"id":"COOP:318225","name":"SPRUCE PINE 2 S, NC US","elevation":921.1}},{"type":"Feature","geometry":{"type":"Point","coordinates":[-82.08333,35.9]},"properties":{"id":"COOP:318226","name":"SPRUCE PINE 1 SW, NC US","elevation":878.1}},{"type":"Feature","geometry":{"type":"Point","coordinates":[-80.8808,35.8099]},"properties":{"id":"COOP:318292","name":"STATESVILLE 2 NNE, NC US","elevation":244.8}},{"type":"Feature","geometry":{"type":"Point","coordinates":[-83.68333,35.36667]},"properties":{"id":"COOP:318302","name":"STECOAH, NC US","elevation":619}},{"type":"Feature","geometry":{"type":"Point","coordinates":[-77.5738,34.4477]},"properties":{"id":"COOP:318380","name":"SURF CITY, NC US","elevation":7.3}},{"type":"Feature","geometry":{"type":"Point","coordinates":[-79.0899,35.3952]},"properties":{"id":"COOP:318430","name":"SWANN, NC US","elevation":106.7}},{"type":"Feature","geometry":{"type":"Point","coordinates":[-82.36667,35.6]},"properties":{"id":"COOP:318442","name":"SWANNANOA 2 E, NC US","elevation":682.8}},{"type":"Feature","geometry":{"type":"Point","coordinates":[-82.385,35.57333]},"properties":{"id":"COOP:318448","name":"SWANNANOA 2 SSE, NC US","elevation":1316.7}},{"type":"Feature","geometry":{"type":"Point","coordinates":[-76.326,35.395]},"properties":{"id":"COOP:318450","name":"SWANQUARTER FERRY, NC US","elevation":0.9}},{"type":"Feature","geometry":{"type":"Point","coordinates":[-78.8603,34.1586]},"properties":{"id":"COOP:318470","name":"TABOR CITY 1 NE, NC US","elevation":24.4}},{"type":"Feature","geometry":{"type":"Point","coordinates":[-83.9388,35.4477]},"properties":{"id":"COOP:318492","name":"TAPOCO, NC US","elevation":338.3}},{"type":"Feature","geometry":{"type":"Point","coordinates":[-77.5386,35.8847]},"properties":{"id":"COOP:318500","name":"TARBORO 1 S, NC US","elevation":10.7}},{"type":"Feature","geometry":{"type":"Point","coordinates":[-81.1716,35.9225]},"properties":{"id":"COOP:318519","name":"TAYLORSVILLE, NC US","elevation":402.3}},{"type":"Feature","geometry":{"type":"Point","coordinates":[-83.8,35.25]},"properties":{"id":"COOP:318560","name":"TEYAHALEE BALD, NC US","elevation":1434.1}},{"type":"Feature","geometry":{"type":"Point","coordinates":[-83.13333,35.23333]},"properties":{"id":"COOP:318592","name":"THORPE POWERHOUSE, NC US","elevation":708.1}},{"type":"Feature","geometry":{"type":"Point","coordinates":[-83.98333,35.13333]},"properties":{"id":"COOP:318664","name":"TOMOTLA, NC US","elevation":481.9}},{"type":"Feature","geometry":{"type":"Point","coordinates":[-81.30525,36.40039]},"properties":{"id":"COOP:318694","name":"TRANSOU, NC US","elevation":863.8}},{"type":"Feature","geometry":{"type":"Point","coordinates":[-77.3548,35.0629]},"properties":{"id":"COOP:318706","name":"TRENTON, NC US","elevation":9.1}},{"type":"Feature","geometry":{"type":"Point","coordinates":[-79.9,35.36667]},"properties":{"id":"COOP:318734","name":"TROY, NC US"}},{"type":"Feature","geometry":{"type":"Point","coordinates":[-82.25178,35.20574]},"properties":{"id":"COOP:318744","name":"TRYON, NC US","elevation":402.3}},{"type":"Feature","geometry":{"type":"Point","coordinates":[-83.13333,35.23333]},"properties":{"id":"COOP:318754","name":"TUCKASEGEE 2 S, NC US","elevation":705}},{"type":"Feature","geometry":{"type":"Point","coordinates":[-78.45,36.51667]},"properties":{"id":"COOP:318764","name":"TUNGSTEN MINES, NC US","elevation":121.9}},{"type":"Feature","geometry":{"type":"Point","coordinates":[-80.8142,35.9065]},"properties":{"id":"COOP:318778","name":"TURNERSBURG, NC US","elevation":261.5}},{"type":"Feature","geometry":{"type":"Point","coordinates":[-83.88333,35.46667]},"properties":{"id":"COOP:318794","name":"TWENTYMILE, NC US","elevation":399.9}},{"type":"Feature","geometry":{"type":"Point","coordinates":[-81.44435,35.52364]},"properties":{"id":"COOP:318906","name":"VALE AG 2 SW, NC US","elevation":300.2}},{"type":"Feature","geometry":{"type":"Point","coordinates":[-80.07793,34.95871]},"properties":{"id":"COOP:318964","name":"WADESBORO, NC US","elevation":146.3}},{"type":"Feature","geometry":{"type":"Point","coordinates":[-77.9831,34.7315]},"properties":{"id":"COOP:319026","name":"WALLACE 1 SE, NC US","elevation":10.7}},{"type":"Feature","geometry":{"type":"Point","coordinates":[-78.15,36.41667]},"properties":{"id":"COOP:319075","name":"WARRENTON WEATHER BUREAU AIRPORT, NC US","elevation":132}},{"type":"Feature","geometry":{"type":"Point","coordinates":[-78.0044,35.0129]},"properties":{"id":"COOP:319081","name":"WARSAW 5 E, NC US","elevation":33.5}},{"type":"Feature","geometry":{"type":"Point","coordinates":[-77.0723,35.55239]},"properties":{"id":"COOP:319100","name":"WASHINGTON WWTP 4 W, NC US","elevation":3}},{"type":"Feature","geometry":{"type":"Point","coordinates":[-83.09985,35.77449]},"properties":{"id":"COOP:319122","name":"WATERVILLE 2, NC US","elevation":435.9}},{"type":"Feature","geometry":{"type":"Point","coordinates":[-83.09985,35.77449]},"properties":{"id":"COOP:319123","name":"WATERVILLE 2, NC US","elevation":435.9}},{"type":"Feature","geometry":{"type":"Point","coordinates":[-83.56667,35.18333]},"properties":{"id":"COOP:319139","name":"WAYAH BALD, NC US","elevation":1631.9}},{"type":"Feature","geometry":{"type":"Point","coordinates":[-82.9681,35.4868]},"properties":{"id":"COOP:319147","name":"WAYNESVILLE 1 E, NC US","elevation":810.2}},{"type":"Feature","geometry":{"type":"Point","coordinates":[-82.56667,35.7]},"properties":{"id":"COOP:319164","name":"WEAVERVILLE, NC US","elevation":670.6}},{"type":"Feature","geometry":{"type":"Point","coordinates":[-77.6,36.43333]},"properties":{"id":"COOP:319191","name":"WELDON, NC US","elevation":24.1}},{"type":"Feature","geometry":{"type":"Point","coordinates":[-77.58333,36.41667]},"properties":{"id":"COOP:319196","name":"WELDON 2, NC US","elevation":24.1}},{"type":"Feature","geometry":{"type":"Point","coordinates":[-78.45,35.71667]},"properties":{"id":"COOP:319204","name":"WENDELL 6 SW, NC US","elevation":92}},{"type":"Feature","geometry":{"type":"Point","coordinates":[-78.71667,34.31667]},"properties":{"id":"COOP:319352","name":"WHITEVILLE, NC US","elevation":18}},{"type":"Feature","geometry":{"type":"Point","coordinates":[-78.6872,34.2572]},"properties":{"id":"COOP:319354","name":"WHITESVILLE 5 S, NC US","elevation":15.2}},{"type":"Feature","geometry":{"type":"Point","coordinates":[-78.7913,34.4094]},"properties":{"id":"COOP:319357","name":"WHITEVILLE 7 NW, NC US","elevation":27.4}},{"type":"Feature","geometry":{"type":"Point","coordinates":[-81.33333,36.28333]},"properties":{"id":"COOP:319382","name":"WILBAR 4 NW, NC US","elevation":708.1}},{"type":"Feature","geometry":{"type":"Point","coordinates":[-81.18333,36.15]},"properties":{"id":"COOP:319406","name":"WILKESBORO, NC US","elevation":359.1}},{"type":"Feature","geometry":{"type":"Point","coordinates":[-78.0454,34.6605]},"properties":{"id":"COOP:319423","name":"WILLARD 4 SW, NC US","elevation":16.8}},{"type":"Feature","geometry":{"type":"Point","coordinates":[-78.8252,34.835]},"properties":{"id":"COOP:319427","name":"WILLIAM O HUSKE LOCK AND DAM, NC US","elevation":9.1}},{"type":"Feature","geometry":{"type":"Point","coordinates":[-77.0306,35.8529]},"properties":{"id":"COOP:319440","name":"WILLIAMSTON 1 E, NC US","elevation":6.1}},{"type":"Feature","geometry":{"type":"Point","coordinates":[-77.8997,34.2675]},"properties":{"id":"COOP:319457","name":"WILMINGTON INTERNATIONAL AIRPORT, NC US","elevation":10.1}},{"type":"Feature","geometry":{"type":"Point","coordinates":[-77.8788,34.1425]},"properties":{"id":"COOP:319461","name":"WILMINGTON 7 SE, NC US","elevation":9.1}},{"type":"Feature","geometry":{"type":"Point","coordinates":[-77.95,34.23333]},"properties":{"id":"COOP:319462","name":"WILMINGTON, NC US","elevation":2.4}},{"type":"Feature","geometry":{"type":"Point","coordinates":[-77.9205,34.3208]},"properties":{"id":"COOP:319467","name":"WILMINGTON 7 N, NC US","elevation":12.2}},{"type":"Feature","geometry":{"type":"Point","coordinates":[-77.946,35.6938]},"properties":{"id":"COOP:319476","name":"WILSON 3 SW, NC US","elevation":33.5}},{"type":"Feature","geometry":{"type":"Point","coordinates":[-80.21667,36.08333]},"properties":{"id":"COOP:319527","name":"WINSTON SALEM FILTER, NC US","elevation":235}},{"type":"Feature","geometry":{"type":"Point","coordinates":[-80.22222,36.13361]},"properties":{"id":"COOP:319539","name":"WINSTON SALEM REYNOLDS AIRPORT, NC US","elevation":295.7}},{"type":"Feature","geometry":{"type":"Point","coordinates":[-81.2275,36.1308]},"properties":{"id":"COOP:319555","name":"W. KERR SCOTT RESV., NC US","elevation":326.1}},{"type":"Feature","geometry":{"type":"Point","coordinates":[-80.3608,35.8558]},"properties":{"id":"COOP:319667","name":"YADKIN COLLEGE, NC US","elevation":246.9}},{"type":"Feature","geometry":{"type":"Point","coordinates":[-80.5481,36.1306]},"properties":{"id":"COOP:319675","name":"YADKINVILLE 6 E, NC US","elevation":266.7}},{"type":"Feature","geometry":{"type":"Point","coordinates":[-79.33333,36.43333]},"properties":{"id":"COOP:319700","name":"YANCEYVILLE 2 NNE, NC US","elevation":189}},{"type":"Feature","geometry":{"type":"Point","coordinates":[-79.25502,36.3773]},"properties":{"id":"COOP:319704","name":"YANCEYVILLE 4 SE, NC US","elevation":193.5}},{"type":"Feature","geometry":{"type":"Point","coordinates":[-78.3497,35.7878]},"properties":{"id":"COOP:319923","name":"ZEBULON 3 SW, NC US","elevation":79.2}},{"type":"Feature","geometry":{"type":"Point","coordinates":[-81.73333,36.33333]},"properties":{"id":"COOP:319968","name":"ZIONVILLE, NC US","elevation":1132}},{"type":"Feature","geometry":{"type":"Point","coordinates":[-79.5683,34.7055]},"properties":{"id":"COOP:385633","name":"MCCOLL 3 NNW, SC US","elevation":57.9}},{"type":"Feature","geometry":{"type":"Point","coordinates":[-84.03333,35.35]},"properties":{"id":"COOP:403963","name":"HAW KNOB, NC US","elevation":1414.9}},{"type":"Feature","geometry":{"type":"Point","coordinates":[-83.2008,35.9833]},"properties":{"id":"COOP:406534","name":"NEWPORT 1 NW, TN US","elevation":315.8}},{"type":"Feature","geometry":{"type":"Point","coordinates":[-82.13333,36.1]},"properties":{"id":"COOP:407768","name":"ROAN HIGH KNOB, NC US","elevation":1866.9}},{"type":"Feature","geometry":{"type":"Point","coordinates":[-81.1525,36.459]},"properties":{"id":"GHCND:US1NCAG0001","name":"SPARTA 3.5 SSW, NC US","elevation":946.1}},{"type":"Feature","geometry":{"type":"Point","coordinates":[-80.9996,36.4843]},"properties":{"id":"GHCND:US1NCAG0003","name":"GLADE VALLEY 3.0 ENE, NC US","elevation":817.8}},{"type":"Feature","geometry":{"type":"Point","coordinates":[-80.934,36.554]},"properties":{"id":"GHCND:US1NCAG0004","name":"ENNICE 3.4 E, NC US","elevation":885.4}},{"type":"Feature","geometry":{"type":"Point","coordinates":[-81.0866,36.5326]},"properties":{"id":"GHCND:US1NCAG0005","name":"SPARTA 2.8 NE, NC US","elevation":836.7}},{"type":"Feature","geometry":{"type":"Point","coordinates":[-79.4515,36.0951]},"properties":{"id":"GHCND:US1NCAL0003","name":"BURLINGTON 0.8 NNW, NC US","elevation":196.9}},{"type":"Feature","geometry":{"type":"Point","coordinates":[-79.4378,36.0755]},"properties":{"id":"GHCND:US1NCAL0004","name":"BURLINGTON 0.8 SE, NC US","elevation":189.9}},{"type":"Feature","geometry":{"type":"Point","coordinates":[-79.5165,36.0866]},"properties":{"id":"GHCND:US1NCAL0006","name":"ELON COLLEGE 0.6 SSW, NC US","elevation":203.3}},{"type":"Feature","geometry":{"type":"Point","coordinates":[-79.3227,35.9584]},"properties":{"id":"GHCND:US1NCAL0010","name":"GRAHAM 8.2 SSE, NC US","elevation":171.6}},{"type":"Feature","geometry":{"type":"Point","coordinates":[-79.3087,36.044]},"properties":{"id":"GHCND:US1NCAL0012","name":"MEBANE 3.8 SSW, NC US","elevation":176.8}},{"type":"Feature","geometry":{"type":"Point","coordinates":[-79.2957,35.9551]},"properties":{"id":"GHCND:US1NCAL0013","name":"GRAHAM 9.1 SE, NC US","elevation":171.6}},{"type":"Feature","geometry":{"type":"Point","coordinates":[-79.3095,35.9755]},"properties":{"id":"GHCND:US1NCAL0014","name":"HAW RIVER 8.6 SSE, NC US","elevation":175.9}},{"type":"Feature","geometry":{"type":"Point","coordinates":[-79.5189,36.0925]},"properties":{"id":"GHCND:US1NCAL0017","name":"ELON 0.6 SW, NC US","elevation":200.3}},{"type":"Feature","geometry":{"type":"Point","coordinates":[-79.3227,35.9695]},"properties":{"id":"GHCND:US1NCAL0018","name":"GRAHAM 7.5 SSE, NC US","elevation":187.5}},{"type":"Feature","geometry":{"type":"Point","coordinates":[-79.3863,36.053]},"properties":{"id":"GHCND:US1NCAL0027","name":"GRAHAM 0.7 SSE, NC US","elevation":167.3}},{"type":"Feature","geometry":{"type":"Point","coordinates":[-79.4289,35.9215]},"properties":{"id":"GHCND:US1NCAL0030","name":"SNOW CAMP 1.9 N, NC US","elevation":214.6}},{"type":"Feature","geometry":{"type":"Point","coordinates":[-79.2616,36.1316]},"properties":{"id":"GHCND:US1NCAL0031","name":"MEBANE 2.9 NNE, NC US","elevation":193.5}},{"type":"Feature","geometry":{"type":"Point","coordinates":[-79.5454,36.0594]},"properties":{"id":"GHCND:US1NCAL0034","name":"GIBSONVILLE 3.1 S, NC US","elevation":194.5}},{"type":"Feature","geometry":{"type":"Point","coordinates":[-80.0688,34.9537]},"properties":{"id":"GHCND:US1NCAN0002","name":"WADESBORO 0.9 S, NC US","elevation":136.6}},{"type":"Feature","geometry":{"type":"Point","coordinates":[-80.0293,34.9615]},"properties":{"id":"GHCND:US1NCAN0004","name":"WADESBORO 2.2 E, NC US","elevation":112.2}},{"type":"Feature","geometry":{"type":"Point","coordinates":[-81.4292,36.2841]},"properties":{"id":"GHCND:US1NCAS0001","name":"WEST JEFFERSON 8.5 SSE, NC US","elevation":971.1}},{"type":"Feature","geometry":{"type":"Point","coordinates":[-81.6689,36.4075]},"properties":{"id":"GHCND:US1NCAS0002","name":"CRESTON 2.8 SW, NC US","elevation":926.6}},{"type":"Feature","geometry":{"type":"Point","coordinates":[-81.5683,36.3103]},"properties":{"id":"GHCND:US1NCAS0006","name":"TODD 1.5 E, NC US","elevation":1001}},{"type":"Feature","geometry":{"type":"Point","coordinates":[-81.4779,36.4051]},"properties":{"id":"GHCND:US1NCAS0008","name":"WEST JEFFERSON 0.9 NE, NC US","elevation":976.3}},{"type":"Feature","geometry":{"type":"Point","coordinates":[-81.5574,36.3301]},"properties":{"id":"GHCND:US1NCAS0010","name":"TODD 2.6 NE, NC US","elevation":978.7}},{"type":"Feature","geometry":{"type":"Point","coordinates":[-81.5824,36.5628]},"properties":{"id":"GHCND:US1NCAS0012","name":"LANSING 5.9 NW, NC US","elevation":1052.2}},{"type":"Feature","geometry":{"type":"Point","coordinates":[-81.4061,36.3393]},"properties":{"id":"GHCND:US1NCAS0013","name":"GLENDALE SPRINGS 1.5 WSW, NC US","elevation":872}},{"type":"Feature","geometry":{"type":"Point","coordinates":[-81.4728,36.3883]},"properties":{"id":"GHCND:US1NCAS0014","name":"WEST JEFFERSON 1.2 ESE, NC US","elevation":963.2}},{"type":"Feature","geometry":{"type":"Point","coordinates":[-81.6599,36.4252]},"properties":{"id":"GHCND:US1NCAS0015","name":"CRESTON 2.0 W, NC US","elevation":906.2}},{"type":"Feature","geometry":{"type":"Point","coordinates":[-81.4279,36.4011]},"properties":{"id":"GHCND:US1NCAS0016","name":"JEFFERSON 2.7 ESE, NC US","elevation":875.4}},{"type":"Feature","geometry":{"type":"Point","coordinates":[-81.4128,36.5383]},"properties":{"id":"GHCND:US1NCAS0018","name":"GRASSY CREEK 2.7 SSW, NC US","elevation":971.1}},{"type":"Feature","geometry":{"type":"Point","coordinates":[-81.5381,36.3319]},"properties":{"id":"GHCND:US1NCAS0019","name":"TODD 3.6 ENE, NC US","elevation":938.5}},{"type":"Feature","geometry":{"type":"Point","coordinates":[-81.4889,36.265]},"properties":{"id":"GHCND:US1NCAS0022","name":"FLEETWOOD 3.1 SSE, NC US","elevation":1012.9}},{"type":"Feature","geometry":{"type":"Point","coordinates":[-81.4729,36.3825]},"properties":{"id":"GHCND:US1NCAS0023","name":"WEST JEFFERSON 1.4 SE, NC US","elevation":943.1}},{"type":"Feature","geometry":{"type":"Point","coordinates":[-81.9025,36.2779]},"properties":{"id":"GHCND:US1NCAV0002","name":"FLAT SPRINGS 2.5 NE, NC US","elevation":795.5}},{"type":"Feature","geometry":{"type":"Point","coordinates":[-81.9427,35.985]},"properties":{"id":"GHCND:US1NCAV0003","name":"CROSSNORE 2.7 SSW, NC US","elevation":998.2}},{"type":"Feature","geometry":{"type":"Point","coordinates":[-81.8461,36.085]},"properties":{"id":"GHCND:US1NCAV0004","name":"LINVILLE 2.4 ENE, NC US","elevation":1316.7}},{"type":"Feature","geometry":{"type":"Point","coordinates":[-81.8805,36.1849]},"properties":{"id":"GHCND:US1NCAV0005","name":"BEECH MOUNTAIN 1.8 SSE, NC US","elevation":1675.5}},{"type":"Feature","geometry":{"type":"Point","coordinates":[-81.952,35.9544]},"properties":{"id":"GHCND:US1NCAV0007","name":"LINVILLE FALLS 0.5 SW, NC US","elevation":1024.7}},{"type":"Feature","geometry":{"type":"Point","coordinates":[-81.9218,36.0572]},"properties":{"id":"GHCND:US1NCAV0008","name":"NEWLAND 2.0 S, NC US","elevation":1122.9}},{"type":"Feature","geometry":{"type":"Point","coordinates":[-81.8356,36.0895]},"properties":{"id":"GHCND:US1NCAV0009","name":"LINVILLE 2.5 ENE, NC US","elevation":1425.9}},{"type":"Feature","geometry":{"type":"Point","coordinates":[-82.0169,36.0278]},"properties":{"id":"GHCND:US1NCAV0010","name":"PLUMTREE 0.5 W, NC US","elevation":917.1}},{"type":"Feature","geometry":{"type":"Point","coordinates":[-81.8946,36.0506]},"properties":{"id":"GHCND:US1NCAV0011","name":"NEWLAND 3.1 SE, NC US","elevation":1116.8}},{"type":"Feature","geometry":{"type":"Point","coordinates":[-81.2496,35.903]},"properties":{"id":"GHCND:US1NCAX0001","name":"TAYLORSVILLE 4.1 WSW, NC US","elevation":385.9}},{"type":"Feature","geometry":{"type":"Point","coordinates":[-81.2019,35.9274]},"properties":{"id":"GHCND:US1NCAX0003","name":"TAYLORSVILLE 1.3 WNW, NC US","elevation":351.1}},{"type":"Feature","geometry":{"type":"Point","coordinates":[-81.1471,35.9088]},"properties":{"id":"GHCND:US1NCAX0005","name":"TAYLORSVILLE 2.0 ESE, NC US","elevation":371.9}},{"type":"Feature","geometry":{"type":"Point","coordinates":[-81.0744,35.8868]},"properties":{"id":"GHCND:US1NCAX0006","name":"HIDDENITE 1.5 SE, NC US","elevation":341.1}},{"type":"Feature","geometry":{"type":"Point","coordinates":[-81.1199,35.9622]},"properties":{"id":"GHCND:US1NCAX0007","name":"HIDDENITE 4.4 NNW, NC US","elevation":343.5}},{"type":"Feature","geometry":{"type":"Point","coordinates":[-82.5709,35.6534]},"properties":{"id":"GHCND:US1NCBC0001","name":"ASHEVILLE 5.6 NNW, NC US","elevation":777.2}},{"type":"Feature","geometry":{"type":"Point","coordinates":[-82.5835,35.7619]},"properties":{"id":"GHCND:US1NCBC0002","name":"WEAVERVILLE 4.7 NNW, NC US","elevation":669.6}},{"type":"Feature","geometry":{"type":"Point","coordinates":[-82.5728,35.6536]},"properties":{"id":"GHCND:US1NCBC0003","name":"ASHEVILLE 5.7 NNW, NC US","elevation":742.5}},{"type":"Feature","geometry":{"type":"Point","coordinates":[-82.343,35.546]},"properties":{"id":"GHCND:US1NCBC0004","name":"FAIRVIEW 3.8 ENE, NC US","elevation":813.2}},{"type":"Feature","geometry":{"type":"Point","coordinates":[-82.5602,35.6025]},"properties":{"id":"GHCND:US1NCBC0005","name":"ASHEVILLE 2.1 NNW, NC US","elevation":645.6}},{"type":"Feature","geometry":{"type":"Point","coordinates":[-82.4638,35.5984]},"properties":{"id":"GHCND:US1NCBC0006","name":"ASHEVILLE 5.1 ENE, NC US","elevation":621.8}},{"type":"Feature","geometry":{"type":"Point","coordinates":[-82.5632,35.6147]},"properties":{"id":"GHCND:US1NCBC0007","name":"ASHEVILLE 3.1 NNW, NC US","elevation":617.2}},{"type":"Feature","geometry":{"type":"Point","coordinates":[-82.8014,35.6781]},"properties":{"id":"GHCND:US1NCBC0009","name":"LEICESTER 6.3 NW, NC US","elevation":708.7}},{"type":"Feature","geometry":{"type":"Point","coordinates":[-82.6083,35.5112]},"properties":{"id":"GHCND:US1NCBC0012","name":"BENT CREEK 0.3 E, NC US","elevation":665.4}},{"type":"Feature","geometry":{"type":"Point","coordinates":[-82.6763,35.6263]},"properties":{"id":"GHCND:US1NCBC0014","name":"LEICESTER 2 SE, NC US","elevation":672.1}},{"type":"Feature","geometry":{"type":"Point","coordinates":[-82.4141,35.6365]},"properties":{"id":"GHCND:US1NCBC0015","name":"SWANNANOA 2.7 NNW, NC US","elevation":754.1}},{"type":"Feature","geometry":{"type":"Point","coordinates":[-82.5418,35.6435]},"properties":{"id":"GHCND:US1NCBC0016","name":"ASHEVILLE 4.8 N, NC US","elevation":677.6}},{"type":"Feature","geometry":{"type":"Point","coordinates":[-82.6444,35.5395]},"properties":{"id":"GHCND:US1NCBC0018","name":"CANDLER 2.7 ENE, NC US","elevation":650.7}},{"type":"Feature","geometry":{"type":"Point","coordinates":[-82.5096,35.6224]},"properties":{"id":"GHCND:US1NCBC0021","name":"ASHEVILLE 4.0 NNE, NC US","elevation":917.1}},{"type":"Feature","geometry":{"type":"Point","coordinates":[-82.5353,35.4862]},"properties":{"id":"GHCND:US1NCBC0022","name":"SKYLAND 1.0 W, NC US","elevation":670.6}},{"type":"Feature","geometry":{"type":"Point","coordinates":[-82.4348,35.6152]},"properties":{"id":"GHCND:US1NCBC0025","name":"SWANNANOA 2.6 WNW, NC US","elevation":677}},{"type":"Feature","geometry":{"type":"Point","coordinates":[-82.48,35.55]},"properties":{"id":"GHCND:US1NCBC0028","name":"ASHEVILLE 4.2 ESE, NC US","elevation":697.1}},{"type":"Feature","geometry":{"type":"Point","coordinates":[-82.3721,35.5318]},"properties":{"id":"GHCND:US1NCBC0029","name":"FAIRVIEW 1.9 ENE, NC US","elevation":766.6}},{"type":"Feature","geometry":{"type":"Point","coordinates":[-82.332,35.614]},"properties":{"id":"GHCND:US1NCBC0031","name":"BLACK MOUNTAIN 0.1 WSW, NC US","elevation":722.1}},{"type":"Feature","geometry":{"type":"Point","coordinates":[-82.7581,35.4876]},"properties":{"id":"GHCND:US1NCBC0032","name":"CANDLER 5.0 SW, NC US","elevation":768.7}},{"type":"Feature","geometry":{"type":"Point","coordinates":[-82.5434,35.6021]},"properties":{"id":"GHCND:US1NCBC0033","name":"ASHEVILLE 2.0 N, NC US","elevation":686.4}},{"type":"Feature","geometry":{"type":"Point","coordinates":[-82.5714,35.6338]},"properties":{"id":"GHCND:US1NCBC0034","name":"ASHEVILLE 4.3 NNW, NC US","elevation":652.6}},{"type":"Feature","geometry":{"type":"Point","coordinates":[-82.4051,35.5058]},"properties":{"id":"GHCND:US1NCBC0035","name":"FAIRVIEW 1.2 S, NC US","elevation":712}},{"type":"Feature","geometry":{"type":"Point","coordinates":[-82.5135,35.5362]},"properties":{"id":"GHCND:US1NCBC0037","name":"ASHEVILLE 3.3 SE, NC US","elevation":676}},{"type":"Feature","geometry":{"type":"Point","coordinates":[-82.6059,35.5037]},"properties":{"id":"GHCND:US1NCBC0038","name":"ASHEVILLE 7.3 SSW, NC US","elevation":664.8}},{"type":"Feature","geometry":{"type":"Point","coordinates":[-82.5737,35.4745]},"properties":{"id":"GHCND:US1NCBC0039","name":"ARDEN 3.3 WNW, NC US","elevation":657.8}},{"type":"Feature","geometry":{"type":"Point","coordinates":[-82.5548,35.7598]},"properties":{"id":"GHCND:US1NCBC0040","name":"WEAVERVILLE 4.3 N, NC US","elevation":668.1}},{"type":"Feature","geometry":{"type":"Point","coordinates":[-82.4924,35.4791]},"properties":{"id":"GHCND:US1NCBC0041","name":"ARDEN 1.6 ENE, NC US","elevation":694.6}},{"type":"Feature","geometry":{"type":"Point","coordinates":[-82.5672,35.4755]},"properties":{"id":"GHCND:US1NCBC0042","name":"ARDEN 2.9 WNW, NC US","elevation":676}},{"type":"Feature","geometry":{"type":"Point","coordinates":[-82.5953,35.6846]},"properties":{"id":"GHCND:US1NCBC0043","name":"ASHEVILLE 8.1 NNW, NC US","elevation":637.9}},{"type":"Feature","geometry":{"type":"Point","coordinates":[-82.6722,35.5586]},"properties":{"id":"GHCND:US1NCBC0044","name":"CANDLER 1.9 NE, NC US","elevation":679.7}},{"type":"Feature","geometry":{"type":"Point","coordinates":[-82.5505,35.6162]},"properties":{"id":"GHCND:US1NCBC0045","name":"ASHEVILLE 2.9 N, NC US","elevation":660.2}},{"type":"Feature","geometry":{"type":"Point","coordinates":[-82.5216,35.6483]},"properties":{"id":"GHCND:US1NCBC0046","name":"ASHEVILLE 5.3 NNE, NC US","elevation":724.5}},{"type":"Feature","geometry":{"type":"Point","coordinates":[-82.5398,35.6841]},"properties":{"id":"GHCND:US1NCBC0047","name":"WEAVERVILLE 1.4 SE, NC US","elevation":656.8}},{"type":"Feature","geometry":{"type":"Point","coordinates":[-82.6028,35.6778]},"properties":{"id":"GHCND:US1NCBC0049","name":"ASHEVILLE 7.8 NNW, NC US","elevation":627.9}},{"type":"Feature","geometry":{"type":"Point","coordinates":[-82.5549,35.5909]},"properties":{"id":"GHCND:US1NCBC0051","name":"ASHEVILLE 1.2 NNW, NC US","elevation":650.4}},{"type":"Feature","geometry":{"type":"Point","coordinates":[-82.5638,35.6509]},"properties":{"id":"GHCND:US1NCBC0053","name":"ASHEVILLE 5.4 N, NC US","elevation":833.9}},{"type":"Feature","geometry":{"type":"Point","coordinates":[-82.565,35.5954]},"properties":{"id":"GHCND:US1NCBC0054","name":"ASHEVILLE 1.7 NNW, NC US","elevation":647.4}},{"type":"Feature","geometry":{"type":"Point","coordinates":[-82.4808,35.5793]},"properties":{"id":"GHCND:US1NCBC0058","name":"ASHEVILLE 3.8 E, NC US","elevation":664.2}},{"type":"Feature","geometry":{"type":"Point","coordinates":[-82.294,35.6525]},"properties":{"id":"GHCND:US1NCBC0062","name":"MONTREAT 0.6 NE, NC US","elevation":891.5}},{"type":"Feature","geometry":{"type":"Point","coordinates":[-82.5618,35.7579]},"properties":{"id":"GHCND:US1NCBC0064","name":"WEAVERVILLE 4.2 N, NC US","elevation":658.1}},{"type":"Feature","geometry":{"type":"Point","coordinates":[-82.4592,35.7077]},"properties":{"id":"GHCND:US1NCBC0066","name":"WEAVERVILLE 5.6 E, NC US","elevation":780.9}},{"type":"Feature","geometry":{"type":"Point","coordinates":[-82.3297,35.6263]},"properties":{"id":"GHCND:US1NCBC0067","name":"BLACK MOUNTAIN 0.8 N, NC US","elevation":736.1}},{"type":"Feature","geometry":{"type":"Point","coordinates":[-82.4346,35.5452]},"properties":{"id":"GHCND:US1NCBC0069","name":"FAIRVIEW 2.3 NW, NC US","elevation":748}},{"type":"Feature","geometry":{"type":"Point","coordinates":[-82.4963,35.5761]},"properties":{"id":"GHCND:US1NCBC0070","name":"ASHEVILLE 3.0 E, NC US","elevation":633.1}},{"type":"Feature","geometry":{"type":"Point","coordinates":[-82.6796,35.5603]},"properties":{"id":"GHCND:US1NCBC0072","name":"CANDLER 1.8 NNE, NC US","elevation":684.9}},{"type":"Feature","geometry":{"type":"Point","coordinates":[-82.6831,35.6474]},"properties":{"id":"GHCND:US1NCBC0073","name":"LEICESTER 0.9 SE, NC US","elevation":640.1}},{"type":"Feature","geometry":{"type":"Point","coordinates":[-82.338,35.654]},"properties":{"id":"GHCND:US1NCBC0074","name":"BLACK MOUNTAIN 2.8 N, NC US","elevation":783}},{"type":"Feature","geometry":{"type":"Point","coordinates":[-82.5924,35.5812]},"properties":{"id":"GHCND:US1NCBC0075","name":"ASHEVILLE 2.5 WNW, NC US","elevation":649.8}},{"type":"Feature","geometry":{"type":"Point","coordinates":[-82.3056,35.5857]},"properties":{"id":"GHCND:US1NCBC0076","name":"BLACK MOUNTAIN 2.4 SE, NC US","elevation":968.7}},{"type":"Feature","geometry":{"type":"Point","coordinates":[-82.5173,35.6856]},"properties":{"id":"GHCND:US1NCBC0078","name":"WEAVERVILLE 2.4 ESE, NC US","elevation":704.1}},{"type":"Feature","geometry":{"type":"Point","coordinates":[-82.6361,35.5518]},"properties":{"id":"GHCND:US1NCBC0082","name":"ENKA 0.8 ENE, NC US","elevation":658.4}},{"type":"Feature","geometry":{"type":"Point","coordinates":[-82.5583,35.4743]},"properties":{"id":"GHCND:US1NCBC0083","name":"ARDEN 2.4 WNW, NC US","elevation":632.5}},{"type":"Feature","geometry":{"type":"Point","coordinates":[-82.5652,35.4589]},"properties":{"id":"GHCND:US1NCBC0084","name":"ARDEN 2.8 WSW, NC US","elevation":659}},{"type":"Feature","geometry":{"type":"Point","coordinates":[-82.6302,35.6362]},"properties":{"id":"GHCND:US1NCBC0085","name":"ASHEVILLE 6.3 NW, NC US","elevation":647.7}},{"type":"Feature","geometry":{"type":"Point","coordinates":[-82.2848,35.4797]},"properties":{"id":"GHCND:US1NCBC0087","name":"BAT CAVE 1.9 N, NC US","elevation":624.2}},{"type":"Feature","geometry":{"type":"Point","coordinates":[-82.693,35.5546]},"properties":{"id":"GHCND:US1NCBC0091","name":"CANDLER 1.3 N, NC US","elevation":677.9}},{"type":"Feature","geometry":{"type":"Point","coordinates":[-82.3125,35.61]},"properties":{"id":"GHCND:US1NCBC0092","name":"BLACK MOUNTAIN 1.0 ESE, NC US","elevation":779.1}},{"type":"Feature","geometry":{"type":"Point","coordinates":[-82.4457,35.6031]},"properties":{"id":"GHCND:US1NCBC0094","name":"SWANNANOA 3.0 W, NC US","elevation":681.2}},{"type":"Feature","geometry":{"type":"Point","coordinates":[-82.5689,35.6979]},"properties":{"id":"GHCND:US1NCBC0095","name":"WEAVERVILLE 0.6 W, NC US","elevation":661.7}},{"type":"Feature","geometry":{"type":"Point","coordinates":[-82.7142,35.5238]},"properties":{"id":"GHCND:US1NCBC0096","name":"CANDLER 1.5 SW, NC US","elevation":700.1}},{"type":"Feature","geometry":{"type":"Point","coordinates":[-82.4793,35.5566]},"properties":{"id":"GHCND:US1NCBC0099","name":"ASHEVILLE 4.1 ESE, NC US","elevation":675.4}},{"type":"Feature","geometry":{"type":"Point","coordinates":[-82.5309,35.5471]},"properties":{"id":"GHCND:US1NCBC0101","name":"ASHEVILLE 2.1 SSE, NC US","elevation":661.4}},{"type":"Feature","geometry":{"type":"Point","coordinates":[-82.3108,35.5896]},"properties":{"id":"GHCND:US1NCBC0102","name":"BLACK MOUNTAIN 2.0 SSE, NC US","elevation":929.6}},{"type":"Feature","geometry":{"type":"Point","coordinates":[-82.3221,35.6319]},"properties":{"id":"GHCND:US1NCBC0105","name":"BLACK MOUNTAIN 1.3 NNE, NC US","elevation":791}},{"type":"Feature","geometry":{"type":"Point","coordinates":[-82.5428,35.589]},"properties":{"id":"GHCND:US1NCBC0110","name":"ASHEVILLE 1.1 NNE, NC US","elevation":712.6}},{"type":"Feature","geometry":{"type":"Point","coordinates":[-82.4876,35.4655]},"properties":{"id":"GHCND:US1NCBC0113","name":"ARDEN 1.6 E, NC US","elevation":685.5}},{"type":"Feature","geometry":{"type":"Point","coordinates":[-82.4066,35.5272]},"properties":{"id":"GHCND:US1NCBC0114","name":"FAIRVIEW 0.3 NNW, NC US","elevation":711.4}},{"type":"Feature","geometry":{"type":"Point","coordinates":[-82.2571,35.5473]},"properties":{"id":"GHCND:US1NCBC0115","name":"BLACK MOUNTAIN 5.5 SE, NC US","elevation":723.6}},{"type":"Feature","geometry":{"type":"Point","coordinates":[-82.5644,35.6065]},"properties":{"id":"GHCND:US1NCBC0121","name":"ASHEVILLE 2.4 NNW, NC US","elevation":647.4}},{"type":"Feature","geometry":{"type":"Point","coordinates":[-82.4858,35.6701]},"properties":{"id":"GHCND:US1NCBC0122","name":"WEAVERVILLE 4.5 ESE, NC US","elevation":838.2}},{"type":"Feature","geometry":{"type":"Point","coordinates":[-82.565,35.6923]},"properties":{"id":"GHCND:US1NCBC0124","name":"WEAVERVILLE 0.5 SW, NC US","elevation":650.4}},{"type":"Feature","geometry":{"type":"Point","coordinates":[-82.3908,35.607]},"properties":{"id":"GHCND:US1NCBC0126","name":"SWANNANOA 0.4 NNE, NC US","elevation":682.4}},{"type":"Feature","geometry":{"type":"Point","coordinates":[-82.6263,35.6776]},"properties":{"id":"GHCND:US1NCBC0129","name":"WOODFIN 3.7 NW, NC US","elevation":629.4}},{"type":"Feature","geometry":{"type":"Point","coordinates":[-82.4621,35.5794]},"properties":{"id":"GHCND:US1NCBC0133","name":"ASHEVILLE 4.9 E, NC US","elevation":679.1}},{"type":"Feature","geometry":{"type":"Point","coordinates":[-82.5198,35.5087]},"properties":{"id":"GHCND:US1NCBC0136","name":"ASHEVILLE 4.8 SSE, NC US","elevation":692.2}},{"type":"Feature","geometry":{"type":"Point","coordinates":[-82.5471,35.6082]},"properties":{"id":"GHCND:US1NCBC0137","name":"ASHEVILLE 2.4 N, NC US","elevation":652.9}},{"type":"Feature","geometry":{"type":"Point","coordinates":[-78.8113,34.5656]},"properties":{"id":"GHCND:US1NCBD0001","name":"BLADENBORO 2.0 NNW, NC US","elevation":39.6}},{"type":"Feature","geometry":{"type":"Point","coordinates":[-78.6904,34.6847]},"properties":{"id":"GHCND:US1NCBD0002","name":"ELIZABETHTOWN 6.2 NW, NC US","elevation":46}},{"type":"Feature","geometry":{"type":"Point","coordinates":[-78.5892,34.8139]},"properties":{"id":"GHCND:US1NCBD0004","name":"GARLAND 11.2 W, NC US","elevation":33.5}},{"type":"Feature","geometry":{"type":"Point","coordinates":[-78.6933,34.6455]},"properties":{"id":"GHCND:US1NCBD0006","name":"ELIZABETHTOWN 4.9 WNW, NC US","elevation":42.1}},{"type":"Feature","geometry":{"type":"Point","coordinates":[-78.6112,34.6287]},"properties":{"id":"GHCND:US1NCBD0009","name":"ELIZABETHTOWN 0.3 N, NC US","elevation":36.3}},{"type":"Feature","geometry":{"type":"Point","coordinates":[-78.6992,34.6851]},"properties":{"id":"GHCND:US1NCBD0015","name":"ELIZABETHTOWN 6.6 NW, NC US","elevation":46.3}},{"type":"Feature","geometry":{"type":"Point","coordinates":[-76.949,35.483]},"properties":{"id":"GHCND:US1NCBF0002","name":"WASHINGTON 7.6 SE, NC US","elevation":1.8}},{"type":"Feature","geometry":{"type":"Point","coordinates":[-76.9489,35.4855]},"properties":{"id":"GHCND:US1NCBF0003","name":"WASHINGTON 7.5 SE, NC US","elevation":1.2}},{"type":"Feature","geometry":{"type":"Point","coordinates":[-76.8908,35.4776]},"properties":{"id":"GHCND:US1NCBF0004","name":"WASHINGTON 10.5 ESE, NC US","elevation":5.2}},{"type":"Feature","geometry":{"type":"Point","coordinates":[-76.9762,35.4849]},"properties":{"id":"GHCND:US1NCBF0005","name":"WASHINGTON 6.5 SE, NC US","elevation":0.3}},{"type":"Feature","geometry":{"type":"Point","coordinates":[-77.0547,35.5046]},"properties":{"id":"GHCND:US1NCBF0008","name":"CHOCOWINITY 2.6 ESE, NC US","elevation":8.5}},{"type":"Feature","geometry":{"type":"Point","coordinates":[-76.8135,35.4749]},"properties":{"id":"GHCND:US1NCBF0010","name":"BATH 0.7 N, NC US","elevation":4}},{"type":"Feature","geometry":{"type":"Point","coordinates":[-76.9546,35.4084]},"properties":{"id":"GHCND:US1NCBF0014","name":"BLOUNTS CREEK 4.0 N, NC US","elevation":8.2}},{"type":"Feature","geometry":{"type":"Point","coordinates":[-76.7072,35.4265]},"properties":{"id":"GHCND:US1NCBF0016","name":"BATH 6.6 ESE, NC US","elevation":1.8}},{"type":"Feature","geometry":{"type":"Point","coordinates":[-76.9512,35.4908]},"properties":{"id":"GHCND:US1NCBF0020","name":"WASHINGTON 7.2 SE, NC US","elevation":1.8}},{"type":"Feature","geometry":{"type":"Point","coordinates":[-76.7674,35.2872]},"properties":{"id":"GHCND:US1NCBF0024","name":"AURORA 1.6 SE, NC US","elevation":1.5}},{"type":"Feature","geometry":{"type":"Point","coordinates":[-77.0587,35.5428]},"properties":{"id":"GHCND:US1NCBF0029","name":"WASHINGTON 1.0 SSW, NC US","elevation":1.2}},{"type":"Feature","geometry":{"type":"Point","coordinates":[-81.7532,35.6962]},"properties":{"id":"GHCND:US1NCBK0001","name":"MORGANTON 4.4 SW, NC US","elevation":349.3}},{"type":"Feature","geometry":{"type":"Point","coordinates":[-81.786,35.6887]},"properties":{"id":"GHCND:US1NCBK0002","name":"GLEN ALPINE 2.8 S, NC US","elevation":343.8}},{"type":"Feature","geometry":{"type":"Point","coordinates":[-81.7902,35.7266]},"properties":{"id":"GHCND:US1NCBK0004","name":"GLEN ALPINE 0.7 WSW, NC US","elevation":384.7}},{"type":"Feature","geometry":{"type":"Point","coordinates":[-81.569,35.7395]},"properties":{"id":"GHCND:US1NCBK0006","name":"VALDESE 0.8 SW, NC US","elevation":369.4}},{"type":"Feature","geometry":{"type":"Point","coordinates":[-81.7103,35.713]},"properties":{"id":"GHCND:US1NCBK0009","name":"MORGANTON 2.1 SSW, NC US","elevation":359.1}},{"type":"Feature","geometry":{"type":"Point","coordinates":[-81.9005,35.9591]},"properties":{"id":"GHCND:US1NCBK0010","name":"JONAS RIDGE 1.0 SSW, NC US","elevation":1287.2}},{"type":"Feature","geometry":{"type":"Point","coordinates":[-81.9178,35.7699]},"properties":{"id":"GHCND:US1NCBK0012","name":"NEBO 3.9 N, NC US","elevation":439.2}},{"type":"Feature","geometry":{"type":"Point","coordinates":[-81.8918,35.952]},"properties":{"id":"GHCND:US1NCBK0013","name":"JONAS RIDGE 1.4 S, NC US","elevation":1107.9}},{"type":"Feature","geometry":{"type":"Point","coordinates":[-81.4619,35.7484]},"properties":{"id":"GHCND:US1NCBK0015","name":"CONNELLY SPRINGS 2.1 E, NC US","elevation":339.2}},{"type":"Feature","geometry":{"type":"Point","coordinates":[-78.5696,33.9247]},"properties":{"id":"GHCND:US1NCBR0001","name":"CALABASH 1.9 NNE, NC US","elevation":13.4}},{"type":"Feature","geometry":{"type":"Point","coordinates":[-78.0948,34.2024]},"properties":{"id":"GHCND:US1NCBR0002","name":"LELAND 5.7 WSW, NC US","elevation":21}},{"type":"Feature","geometry":{"type":"Point","coordinates":[-78.2736,33.914]},"properties":{"id":"GHCND:US1NCBR0004","name":"HOLDEN BEACH 2.3 E, NC US","elevation":1.5}},{"type":"Feature","geometry":{"type":"Point","coordinates":[-78.4132,33.9192]},"properties":{"id":"GHCND:US1NCBR0005","name":"SHALLOTTE 4.2 SSW, NC US","elevation":6.1}},{"type":"Feature","geometry":{"type":"Point","coordinates":[-78.5377,33.8841]},"properties":{"id":"GHCND:US1NCBR0006","name":"SUNSET BEACH 1.7 WNW, NC US","elevation":4.9}},{"type":"Feature","geometry":{"type":"Point","coordinates":[-78.1116,33.9451]},"properties":{"id":"GHCND:US1NCBR0007","name":"LONG BEACH 2.9 NE, NC US","elevation":11.9}},{"type":"Feature","geometry":{"type":"Point","coordinates":[-78.2804,33.9269]},"properties":{"id":"GHCND:US1NCBR0009","name":"HOLDEN BEACH 2.2 ENE, NC US","elevation":9.1}},{"type":"Feature","geometry":{"type":"Point","coordinates":[-78.0559,34.1073]},"properties":{"id":"GHCND:US1NCBR0012","name":"WINNABOW 3.6 SE, NC US","elevation":10.1}},{"type":"Feature","geometry":{"type":"Point","coordinates":[-78.1236,33.9393]},"properties":{"id":"GHCND:US1NCBR0013","name":"SOUTHPORT 5.9 W, NC US","elevation":7.6}},{"type":"Feature","geometry":{"type":"Point","coordinates":[-78.008,33.9322]},"properties":{"id":"GHCND:US1NCBR0014","name":"SOUTHPORT 1.0 NE, NC US","elevation":5.5}},