{
  "type": "FeatureCollection",
  "features": [
    {
      "type": "Feature",
      "geometry": {
        "type": "Point",
        "coordinates": [
          -80.1994,
          35.3992
        ]
      },
      "properties": {
        "name": "ALBEMARLE, NC US",
        "elevation": 185.9
      }
    },
    {
      "type": "Feature",
      "geometry": {
        "type": "Point",
        "coordinates": [
          -82.01667,
          35.9
        ]
      },
      "properties": {
        "name": "ALTAPASS, NC US",
        "elevation": 841.9
      }
    },
    {
      "type": "Feature",
      "geometry": {
        "type": "Point",
        "coordinates": [
          -83.83861,
          35.20139
        ]
      },
      "properties": {
        "name": "ANDREWS, NC US",
        "elevation": 533.1
      }
    },
    {
      "type": "Feature",
      "geometry": {
        "type": "Point",
        "coordinates": [
          -83.91667,
          35.06667
        ]
      },
      "properties": {
        "name": "ANDREWS DAM, NC US",
        "elevation": 519.1
      }
    },
    {
      "type": "Feature",
      "geometry": {
        "type": "Point",
        "coordinates": [
          -78.8369,
          35.7426
        ]
      },
      "properties": {
        "name": "APEX, NC US",
        "elevation": 137.2
      }
    },
    {
      "type": "Feature",
      "geometry": {
        "type": "Point",
        "coordinates": [
          -77.9822,
          36.2911
        ]
      },
      "properties": {
        "name": "ARCOLA, NC US",
        "elevation": 100.6
      }
    },
    {
      "type": "Feature",
      "geometry": {
        "type": "Point",
        "coordinates": [
          -79.8378,
          35.7044
        ]
      },
      "properties": {
        "name": "ASHEBORO 2 W, NC US",
        "elevation": 265.2
      }
    },
    {
      "type": "Feature",
      "geometry": {
        "type": "Point",
        "coordinates": [
          -82.48333,
          35.43333
        ]
      },
      "properties": {
        "name": "ASHEVILLE HENDERSONVILLE AIRPORT, NC US",
        "elevation": 637.9
      }
    },
    {
      "type": "Feature",
      "geometry": {
        "type": "Point",
        "coordinates": [
          -82.5375,
          35.4319
        ]
      },
      "properties": {
        "name": "ASHEVILLE AIRPORT, NC US",
        "elevation": 645.3
      }
    },
    {
      "type": "Feature",
      "geometry": {
        "type": "Point",
        "coordinates": [
          -82.5568,
          35.5954
        ]
      },
      "properties": {
        "name": "ASHEVILLE, NC US",
        "elevation": 682.1
      }
    },
    {
      "type": "Feature",
      "geometry": {
        "type": "Point",
        "coordinates": [
          -81.9352,
          35.8922
        ]
      },
      "properties": {
        "name": "ASHFORD, NC US",
        "elevation": 571.5
      }
    },
    {
      "type": "Feature",
      "geometry": {
        "type": "Point",
        "coordinates": [
          -81.95,
          35.9
        ]
      },
      "properties": {
        "name": "ASHFORD 2 N, NC US",
        "elevation": 604.1
      }
    },
    {
      "type": "Feature",
      "geometry": {
        "type": "Point",
        "coordinates": [
          -76.7381,
          34.6997
        ]
      },
      "properties": {
        "name": "ATLANTIC BEACH WATER PLANT, NC US",
        "elevation": 1.2
      }
    },
    {
      "type": "Feature",
      "geometry": {
        "type": "Point",
        "coordinates": [
          -76.7763,
          35.3872
        ]
      },
      "properties": {
        "name": "AURORA 6 N, NC US",
        "elevation": 6.1
      }
    },
    {
      "type": "Feature",
      "geometry": {
        "type": "Point",
        "coordinates": [
          -80.1827,
          35.4591
        ]
      },
      "properties": {
        "name": "BADIN, NC US",
        "elevation": 182.9
      }
    },
    {
      "type": "Feature",
      "geometry": {
        "type": "Point",
        "coordinates": [
          -82.16667,
          36.01667
        ]
      },
      "properties": {
        "name": "BAKERSVILLE, NC US",
        "elevation": 755.9
      }
    },
    {
      "type": "Feature",
      "geometry": {
        "type": "Point",
        "coordinates": [
          -83.08333,
          35.41667
        ]
      },
      "properties": {
        "name": "BALSAM, NC US",
        "elevation": 1066.8
      }
    },
    {
      "type": "Feature",
      "geometry": {
        "type": "Point",
        "coordinates": [
          -81.8741,
          36.1616
        ]
      },
      "properties": {
        "name": "BANNER ELK, NC US",
        "elevation": 1149.1
      }
    },
    {
      "type": "Feature",
      "geometry": {
        "type": "Point",
        "coordinates": [
          -82.4325,
          35.76
        ]
      },
      "properties": {
        "name": "BARNARDSVILLE 2 SE, NC US",
        "elevation": 707.1
      }
    },
    {
      "type": "Feature",
      "geometry": {
        "type": "Point",
        "coordinates": [
          -82.4325,
          35.76
        ]
      },
      "properties": {
        "name": "BARNARDSVILLE 2 SE, NC US",
        "elevation": 707.1
      }
    },
    {
      "type": "Feature",
      "geometry": {
        "type": "Point",
        "coordinates": [
          -76.83333,
          35.45
        ]
      },
      "properties": {
        "name": "BATH 2 WSW, NC US",
        "elevation": 3
      }
    },
    {
      "type": "Feature",
      "geometry": {
        "type": "Point",
        "coordinates": [
          -76.816,
          35.1311
        ]
      },
      "properties": {
        "name": "BAYBORO 3 SW, NC US",
        "elevation": 1.5
      }
    },
    {
      "type": "Feature",
      "geometry": {
        "type": "Point",
        "coordinates": [
          -84.08333,
          35.23333
        ]
      },
      "properties": {
        "name": "BEAVERDAM CREEK, NC US",
        "elevation": 641
      }
    },
    {
      "type": "Feature",
      "geometry": {
        "type": "Point",
        "coordinates": [
          -84.1,
          35.21667
        ]
      },
      "properties": {
        "name": "BEAVERDAM CREEK, NC US",
        "elevation": 573
      }
    },
    {
      "type": "Feature",
      "geometry": {
        "type": "Point",
        "coordinates": [
          -82.43333,
          35.7
        ]
      },
      "properties": {
        "name": "BEECH, NC US",
        "elevation": 1021.1
      }
    },
    {
      "type": "Feature",
      "geometry": {
        "type": "Point",
        "coordinates": [
          -81.87409,
          36.18738
        ]
      },
      "properties": {
        "name": "BEECH MOUNTAIN, NC US",
        "elevation": 1540.2
      }
    },
    {
      "type": "Feature",
      "geometry": {
        "type": "Point",
        "coordinates": [
          -82.4,
          35.63333
        ]
      },
      "properties": {
        "name": "BEETREE DAM, NC US",
        "elevation": 775.1
      }
    },
    {
      "type": "Feature",
      "geometry": {
        "type": "Point",
        "coordinates": [
          -82.4,
          35.63333
        ]
      },
      "properties": {
        "name": "BEETREE DAM 2, NC US",
        "elevation": 775.1
      }
    },
    {
      "type": "Feature",
      "geometry": {
        "type": "Point",
        "coordinates": [
          -82.4,
          35.7
        ]
      },
      "properties": {
        "name": "BEETREE GAP, NC US",
        "elevation": 1583.1
      }
    },
    {
      "type": "Feature",
      "geometry": {
        "type": "Point",
        "coordinates": [
          -76.5848,
          35.573
        ]
      },
      "properties": {
        "name": "BELHAVEN 3 NE, NC US",
        "elevation": 0
      }
    },
    {
      "type": "Feature",
      "geometry": {
        "type": "Point",
        "coordinates": [
          -82.5966,
          35.5044
        ]
      },
      "properties": {
        "name": "BENT CREEK, NC US",
        "elevation": 643.1
      }
    },
    {
      "type": "Feature",
      "geometry": {
        "type": "Point",
        "coordinates": [
          -79.0706,
          35.6542
        ]
      },
      "properties": {
        "name": "B. EVERETT JORDAN DAM, NC US",
        "elevation": 94.5
      }
    },
    {
      "type": "Feature",
      "geometry": {
        "type": "Point",
        "coordinates": [
          -82.81667,
          35.36667
        ]
      },
      "properties": {
        "name": "BIG EAST FORK PIGEON, NC US",
        "elevation": 1030.2
      }
    },
    {
      "type": "Feature",
      "geometry": {
        "type": "Point",
        "coordinates": [
          -82.35944,
          35.60722
        ]
      },
      "properties": {
        "name": "BLACK MOUNTAIN, NC US",
        "elevation": 698
      }
    },
    {
      "type": "Feature",
      "geometry": {
        "type": "Point",
        "coordinates": [
          -82.6306,
          35.3044
        ]
      },
      "properties": {
        "name": "BLANTYRE 2, NC US",
        "elevation": 655.3
      }
    },
    {
      "type": "Feature",
      "geometry": {
        "type": "Point",
        "coordinates": [
          -81.7025,
          36.1472
        ]
      },
      "properties": {
        "name": "BLOWING ROCK 1 NW, NC US",
        "elevation": 1173.5
      }
    },
    {
      "type": "Feature",
      "geometry": {
        "type": "Point",
        "coordinates": [
          -82.36667,
          35.35
        ]
      },
      "properties": {
        "name": "BLUE RIDGE POST OFFI, NC US",
        "elevation": 694.9
      }
    },
    {
      "type": "Feature",
      "geometry": {
        "type": "Point",
        "coordinates": [
          -81.21667,
          36.4
        ]
      },
      "properties": {
        "name": "BLUFF, NC US",
        "elevation": 990.9
      }
    },
    {
      "type": "Feature",
      "geometry": {
        "type": "Point",
        "coordinates": [
          -81.3517,
          36.0694
        ]
      },
      "properties": {
        "name": "BOOMER 5 W, NC US",
        "elevation": 341.4
      }
    },
    {
      "type": "Feature",
      "geometry": {
        "type": "Point",
        "coordinates": [
          -81.66667,
          36.21667
        ]
      },
      "properties": {
        "name": "BOONE, NC US",
        "elevation": 987.9
      }
    },
    {
      "type": "Feature",
      "geometry": {
        "type": "Point",
        "coordinates": [
          -81.64563,
          36.21395
        ]
      },
      "properties": {
        "name": "BOONE, NC US",
        "elevation": 944.9
      }
    },
    {
      "type": "Feature",
      "geometry": {
        "type": "Point",
        "coordinates": [
          -82.73575,
          35.22844
        ]
      },
      "properties": {
        "name": "BREVARD, NC US",
        "elevation": 662.9
      }
    },
    {
      "type": "Feature",
      "geometry": {
        "type": "Point",
        "coordinates": [
          -81.8362,
          35.7427
        ]
      },
      "properties": {
        "name": "BRIDGEWATER HYDRO, NC US",
        "elevation": 335.3
      }
    },
    {
      "type": "Feature",
      "geometry": {
        "type": "Point",
        "coordinates": [
          -78.71667,
          34.25
        ]
      },
      "properties": {
        "name": "BRUNSWICK 3 SSW, NC US",
        "elevation": 15.8
      }
    },
    {
      "type": "Feature",
      "geometry": {
        "type": "Point",
        "coordinates": [
          -83.4383,
          35.4286
        ]
      },
      "properties": {
        "name": "BRYSON CITY 2, NC US",
        "elevation": 618.1
      }
    },
    {
      "type": "Feature",
      "geometry": {
        "type": "Point",
        "coordinates": [
          -83.45,
          35.43333
        ]
      },
      "properties": {
        "name": "BRYSON CITY, NC US",
        "elevation": 537.1
      }
    },
    {
      "type": "Feature",
      "geometry": {
        "type": "Point",
        "coordinates": [
          -83.45,
          35.43333
        ]
      },
      "properties": {
        "name": "BRYSON CITY 2, NC US",
        "elevation": 548.9
      }
    },
    {
      "type": "Feature",
      "geometry": {
        "type": "Point",
        "coordinates": [
          -83.4623,
          35.4467
        ]
      },
      "properties": {
        "name": "BRYSON CITY 4, NC US",
        "elevation": 605
      }
    },
    {
      "type": "Feature",
      "geometry": {
        "type": "Point",
        "coordinates": [
          -82.61667,
          35.18333
        ]
      },
      "properties": {
        "name": "BUCK FOREST, NC US",
        "elevation": 766.6
      }
    },
    {
      "type": "Feature",
      "geometry": {
        "type": "Point",
        "coordinates": [
          -77.9719,
          34.5494
        ]
      },
      "properties": {
        "name": "BURGAW AG 1 S, NC US",
        "elevation": 15.2
      }
    },
    {
      "type": "Feature",
      "geometry": {
        "type": "Point",
        "coordinates": [
          -77.8638,
          34.5322
        ]
      },
      "properties": {
        "name": "BURGAW 4 E, NC US",
        "elevation": 10.1
      }
    },
    {
      "type": "Feature",
      "geometry": {
        "type": "Point",
        "coordinates": [
          -79.43333,
          36.08333
        ]
      },
      "properties": {
        "name": "BURLINGTON, NC US",
        "elevation": 200.9
      }
    },
    {
      "type": "Feature",
      "geometry": {
        "type": "Point",
        "coordinates": [
          -79.4481,
          36.0603
        ]
      },
      "properties": {
        "name": "BURLINGTON FIRE STATION NUMBER 5, NC US",
        "elevation": 201.2
      }
    },
    {
      "type": "Feature",
      "geometry": {
        "type": "Point",
        "coordinates": [
          -79.4366,
          36.0955
        ]
      },
      "properties": {
        "name": "BURLINGTON, NC US",
        "elevation": 195.1
      }
    },
    {
      "type": "Feature",
      "geometry": {
        "type": "Point",
        "coordinates": [
          -82.2692,
          35.9253
        ]
      },
      "properties": {
        "name": "BURNSVILLE AG, NC US",
        "elevation": 853.4
      }
    },
    {
      "type": "Feature",
      "geometry": {
        "type": "Point",
        "coordinates": [
          -78.7736,
          36.1414
        ]
      },
      "properties": {
        "name": "BUTNER FILTER PLANT, NC US",
        "elevation": 108.2
      }
    },
    {
      "type": "Feature",
      "geometry": {
        "type": "Point",
        "coordinates": [
          -82.6987,
          35.5453
        ]
      },
      "properties": {
        "name": "CANDLER 1 W, NC US",
        "elevation": 682.8
      }
    },
    {
      "type": "Feature",
      "geometry": {
        "type": "Point",
        "coordinates": [
          -82.4,
          35.91667
        ]
      },
      "properties": {
        "name": "CANE RIVER, NC US",
        "elevation": 775.1
      }
    },
    {
      "type": "Feature",
      "geometry": {
        "type": "Point",
        "coordinates": [
          -82.7697,
          35.7044
        ]
      },
      "properties": {
        "name": "CANTO, NC US",
        "elevation": 620.9
      }
    },
    {
      "type": "Feature",
      "geometry": {
        "type": "Point",
        "coordinates": [
          -82.85,
          35.51667
        ]
      },
      "properties": {
        "name": "CANTON 1 SW, NC US",
        "elevation": 811.4
      }
    },
    {
      "type": "Feature",
      "geometry": {
        "type": "Point",
        "coordinates": [
          -78.8252,
          34.835
        ]
      },
      "properties": {
        "name": "WILLIAM O HUSKE LOCK AND DAM, NC US",
        "elevation": 9.1
      }
    },
    {
      "type": "Feature",
      "geometry": {
        "type": "Point",
        "coordinates": [
          -75.6219,
          35.2326
        ]
      },
      "properties": {
        "name": "CAPE HATTERAS BILLY MITCHELL FIELD, NC US",
        "elevation": 3.4
      }
    },
    {
      "type": "Feature",
      "geometry": {
        "type": "Point",
        "coordinates": [
          -81.8,
          35.28333
        ]
      },
      "properties": {
        "name": "CAROLEEN, NC US",
        "elevation": 246.9
      }
    },
    {
      "type": "Feature",
      "geometry": {
        "type": "Point",
        "coordinates": [
          -79.4066,
          35.332
        ]
      },
      "properties": {
        "name": "CARTHAGE WATER TREATMENT PLANT, NC US",
        "elevation": 134.1
      }
    },
    {
      "type": "Feature",
      "geometry": {
        "type": "Point",
        "coordinates": [
          -79.41667,
          35.31667
        ]
      },
      "properties": {
        "name": "CARTHAGE 2 S, NC US",
        "elevation": 182.9
      }
    },
    {
      "type": "Feature",
      "geometry": {
        "type": "Point",
        "coordinates": [
          -83.48333,
          35.15
        ]
      },
      "properties": {
        "name": "CARTOOGECHAYE CREEK, NC US",
        "elevation": 670.9
      }
    },
    {
      "type": "Feature",
      "geometry": {
        "type": "Point",
        "coordinates": [
          -78.7878,
          35.7192
        ]
      },
      "properties": {
        "name": "CARY, NC US",
        "elevation": 118.9
      }
    },
    {
      "type": "Feature",
      "geometry": {
        "type": "Point",
        "coordinates": [
          -81.6189,
          35.5119
        ]
      },
      "properties": {
        "name": "CASAR, NC US",
        "elevation": 344.4
      }
    },
    {
      "type": "Feature",
      "geometry": {
        "type": "Point",
        "coordinates": [
          -83.09556,
          35.6375
        ]
      },
      "properties": {
        "name": "CATALOOCHEE, NC US",
        "elevation": 807.7
      }
    },
    {
      "type": "Feature",
      "geometry": {
        "type": "Point",
        "coordinates": [
          -83.1,
          35.55
        ]
      },
      "properties": {
        "name": "CATALOOCHEE RANCH, NC US",
        "elevation": 1464
      }
    },
    {
      "type": "Feature",
      "geometry": {
        "type": "Point",
        "coordinates": [
          -81.08333,
          35.7
        ]
      },
      "properties": {
        "name": "CATAWBA 1 WSW, NC US",
        "elevation": 249.9
      }
    },
    {
      "type": "Feature",
      "geometry": {
        "type": "Point",
        "coordinates": [
          -81.1342,
          35.6487
        ]
      },
      "properties": {
        "name": "CATAWBA 5 SW, NC US",
        "elevation": 309.4
      }
    },
    {
      "type": "Feature",
      "geometry": {
        "type": "Point",
        "coordinates": [
          -81.08472,
          35.74444
        ]
      },
      "properties": {
        "name": "CATAWBA 3 NNW, NC US",
        "elevation": 274.3
      }
    },
    {
      "type": "Feature",
      "geometry": {
        "type": "Point",
        "coordinates": [
          -81.06667,
          35.73333
        ]
      },
      "properties": {
        "name": "CATAWBA LOOKOUT SHOA, NC US",
        "elevation": 259.1
      }
    },
    {
      "type": "Feature",
      "geometry": {
        "type": "Point",
        "coordinates": [
          -76.3,
          34.9833
        ]
      },
      "properties": {
        "name": "CEDAR ISLAND, NC US",
        "elevation": 2.4
      }
    },
    {
      "type": "Feature",
      "geometry": {
        "type": "Point",
        "coordinates": [
          -82.63333,
          35.15
        ]
      },
      "properties": {
        "name": "CEDAR MOUNTAIN, NC US",
        "elevation": 839.1
      }
    },
    {
      "type": "Feature",
      "geometry": {
        "type": "Point",
        "coordinates": [
          -82.1769,
          35.8297
        ]
      },
      "properties": {
        "name": "CELO 2 S, NC US",
        "elevation": 816.9
      }
    },
    {
      "type": "Feature",
      "geometry": {
        "type": "Point",
        "coordinates": [
          -82.2,
          35.85
        ]
      },
      "properties": {
        "name": "CELO, NC US",
        "elevation": 839.1
      }
    },
    {
      "type": "Feature",
      "geometry": {
        "type": "Point",
        "coordinates": [
          -82.9,
          35.56667
        ]
      },
      "properties": {
        "name": "CHAMBERS MOUNTAIN, NC US",
        "elevation": 1311.9
      }
    },
    {
      "type": "Feature",
      "geometry": {
        "type": "Point",
        "coordinates": [
          -79.0794,
          35.9086
        ]
      },
      "properties": {
        "name": "CHAPEL HILL 2 W, NC US",
        "elevation": 152.4
      }
    },
    {
      "type": "Feature",
      "geometry": {
        "type": "Point",
        "coordinates": [
          -79.01667,
          35.91667
        ]
      },
      "properties": {
        "name": "CHAPEL HILL 2 E, NC US",
        "elevation": 153
      }
    },
    {
      "type": "Feature",
      "geometry": {
        "type": "Point",
        "coordinates": [
          -80.9552,
          35.2236
        ]
      },
      "properties": {
        "name": "CHARLOTTE DOUGLAS AIRPORT, NC US",
        "elevation": 221.9
      }
    },
    {
      "type": "Feature",
      "geometry": {
        "type": "Point",
        "coordinates": [
          -80.85,
          35.23333
        ]
      },
      "properties": {
        "name": "CHARLOTTE, NC US",
        "elevation": 235.9
      }
    },
    {
      "type": "Feature",
      "geometry": {
        "type": "Point",
        "coordinates": [
          -79.0047,
          35.7369
        ]
      },
      "properties": {
        "name": "CHATHAM WTP, NC US",
        "elevation": 93.9
      }
    },
    {
      "type": "Feature",
      "geometry": {
        "type": "Point",
        "coordinates": [
          -83.8,
          35.01667
        ]
      },
      "properties": {
        "name": "CHATUGE DAM, NC US",
        "elevation": 558.1
      }
    },
    {
      "type": "Feature",
      "geometry": {
        "type": "Point",
        "coordinates": [
          -83.31667,
          35.48333
        ]
      },
      "properties": {
        "name": "CHEROKEE, NC US",
        "elevation": 616
      }
    },
    {
      "type": "Feature",
      "geometry": {
        "type": "Point",
        "coordinates": [
          -77.15306,
          35.51861
        ]
      },
      "properties": {
        "name": "CHOCOWINITY, NC US",
        "elevation": 12.2
      }
    },
    {
      "type": "Feature",
      "geometry": {
        "type": "Point",
        "coordinates": [
          -78.4633,
          35.6408
        ]
      },
      "properties": {
        "name": "CLAYTON WTP, NC US",
        "elevation": 91.4
      }
    },
    {
      "type": "Feature",
      "geometry": {
        "type": "Point",
        "coordinates": [
          -83.5,
          35.55
        ]
      },
      "properties": {
        "name": "CLINGMANS DOME, NC US",
        "elevation": 1905.9
      }
    },
    {
      "type": "Feature",
      "geometry": {
        "type": "Point",
        "coordinates": [
          -78.31667,
          34.96667
        ]
      },
      "properties": {
        "name": "CLINTON 2 S, NC US",
        "elevation": 46
      }
    },
    {
      "type": "Feature",
      "geometry": {
        "type": "Point",
        "coordinates": [
          -78.2758,
          35.0247
        ]
      },
      "properties": {
        "name": "CLINTON 2 NE, NC US",
        "elevation": 48.2
      }
    },
    {
      "type": "Feature",
      "geometry": {
        "type": "Point",
        "coordinates": [
          -82.6,
          35.91667
        ]
      },
      "properties": {
        "name": "CODY STORE, NC US",
        "elevation": 747.1
      }
    },
    {
      "type": "Feature",
      "geometry": {
        "type": "Point",
        "coordinates": [
          -79.61667,
          34.93333
        ]
      },
      "properties": {
        "name": "HAMLET 4 NE, NC US",
        "elevation": 121.9
      }
    },
    {
      "type": "Feature",
      "geometry": {
        "type": "Point",
        "coordinates": [
          -76.127,
          35.7109
        ]
      },
      "properties": {
        "name": "COLUMBIA AG GUM NECK, NC US",
        "elevation": 3
      }
    },
    {
      "type": "Feature",
      "geometry": {
        "type": "Point",
        "coordinates": [
          -76.26667,
          35.91667
        ]
      },
      "properties": {
        "name": "COLUMBIA, NC US",
        "elevation": 3
      }
    },
    {
      "type": "Feature",
      "geometry": {
        "type": "Point",
        "coordinates": [
          -80.5834,
          35.4111
        ]
      },
      "properties": {
        "name": "CONCORD, NC US",
        "elevation": 213.4
      }
    },
    {
      "type": "Feature",
      "geometry": {
        "type": "Point",
        "coordinates": [
          -81.1919,
          35.8213
        ]
      },
      "properties": {
        "name": "CONOVER OXFORD SHOALS, NC US",
        "elevation": 269.1
      }
    },
    {
      "type": "Feature",
      "geometry": {
        "type": "Point",
        "coordinates": [
          -83.43333,
          35.06667
        ]
      },
      "properties": {
        "name": "COWEETA, NC US",
        "elevation": 878.1
      }
    },
    {
      "type": "Feature",
      "geometry": {
        "type": "Point",
        "coordinates": [
          -83.4301,
          35.0604
        ]
      },
      "properties": {
        "name": "COWEETA EXPERIMENT STATION, NC US",
        "elevation": 684.9
      }
    },
    {
      "type": "Feature",
      "geometry": {
        "type": "Point",
        "coordinates": [
          -83.46667,
          35.03333
        ]
      },
      "properties": {
        "name": "COWEETA 8, NC US",
        "elevation": 1182.9
      }
    },
    {
      "type": "Feature",
      "geometry": {
        "type": "Point",
        "coordinates": [
          -82.35,
          35.81667
        ]
      },
      "properties": {
        "name": "COXCOMBE MOUNTAIN, NC US",
        "elevation": 1296
      }
    },
    {
      "type": "Feature",
      "geometry": {
        "type": "Point",
        "coordinates": [
          -82.38333,
          35.68333
        ]
      },
      "properties": {
        "name": "CRAGGY KNOB, NC US",
        "elevation": 1516.1
      }
    },
    {
      "type": "Feature",
      "geometry": {
        "type": "Point",
        "coordinates": [
          -76.98333,
          34.98333
        ]
      },
      "properties": {
        "name": "CROATAN, NC US"
      }
    },
    {
      "type": "Feature",
      "geometry": {
        "type": "Point",
        "coordinates": [
          -81.93333,
          36.01667
        ]
      },
      "properties": {
        "name": "CROSSNORE, NC US",
        "elevation": 1046.1
      }
    },
    {
      "type": "Feature",
      "geometry": {
        "type": "Point",
        "coordinates": [
          -83.1747,
          35.3116
        ]
      },
      "properties": {
        "name": "CULLOWHEE, NC US",
        "elevation": 668.1
      }
    },
    {
      "type": "Feature",
      "geometry": {
        "type": "Point",
        "coordinates": [
          -80.4,
          36.3
        ]
      },
      "properties": {
        "name": "DALTON, NC US",
        "elevation": 307.8
      }
    },
    {
      "type": "Feature",
      "geometry": {
        "type": "Point",
        "coordinates": [
          -80.1789,
          36.4301
        ]
      },
      "properties": {
        "name": "DANBURY, NC US",
        "elevation": 310.6
      }
    },
    {
      "type": "Feature",
      "geometry": {
        "type": "Point",
        "coordinates": [
          -82.83333,
          35.28333
        ]
      },
      "properties": {
        "name": "PISGAH FOREST 8 W, NC US",
        "elevation": 841.9
      }
    },
    {
      "type": "Feature",
      "geometry": {
        "type": "Point",
        "coordinates": [
          -82.3,
          35.98333
        ]
      },
      "properties": {
        "name": "DAYBOOK, NC US",
        "elevation": 716.9
      }
    },
    {
      "type": "Feature",
      "geometry": {
        "type": "Point",
        "coordinates": [
          -78.81667,
          36.33333
        ]
      },
      "properties": {
        "name": "DEEP CREEK, NC US"
      }
    },
    {
      "type": "Feature",
      "geometry": {
        "type": "Point",
        "coordinates": [
          -83.43333,
          35.46667
        ]
      },
      "properties": {
        "name": "DEEP CREEK, NC US",
        "elevation": 566.9
      }
    },
    {
      "type": "Feature",
      "geometry": {
        "type": "Point",
        "coordinates": [
          -82.86667,
          35.43333
        ]
      },
      "properties": {
        "name": "DIX CREEK, NC US",
        "elevation": 1000
      }
    },
    {
      "type": "Feature",
      "geometry": {
        "type": "Point",
        "coordinates": [
          -82.88333,
          35.43333
        ]
      },
      "properties": {
        "name": "DIX CREEK TVA, NC US",
        "elevation": 1092.1
      }
    },
    {
      "type": "Feature",
      "geometry": {
        "type": "Point",
        "coordinates": [
          -82.86667,
          35.45
        ]
      },
      "properties": {
        "name": "DIX CREEK, NC US",
        "elevation": 933
      }
    },
    {
      "type": "Feature",
      "geometry": {
        "type": "Point",
        "coordinates": [
          -80.71917,
          36.41194
        ]
      },
      "properties": {
        "name": "DOBSON, NC US",
        "elevation": 391.7
      }
    },
    {
      "type": "Feature",
      "geometry": {
        "type": "Point",
        "coordinates": [
          -82.83333,
          35.71667
        ]
      },
      "properties": {
        "name": "DOGGETT GAP, NC US",
        "elevation": 1158.8
      }
    },
    {
      "type": "Feature",
      "geometry": {
        "type": "Point",
        "coordinates": [
          -82.83333,
          35.71667
        ]
      },
      "properties": {
        "name": "DOGGETT GAP 2, NC US",
        "elevation": 1064.1
      }
    },
    {
      "type": "Feature",
      "geometry": {
        "type": "Point",
        "coordinates": [
          -78.6881,
          35.3247
        ]
      },
      "properties": {
        "name": "DUNN 4 NW, NC US",
        "elevation": 61
      }
    },
    {
      "type": "Feature",
      "geometry": {
        "type": "Point",
        "coordinates": [
          -78.9625,
          36.0425
        ]
      },
      "properties": {
        "name": "DURHAM, NC US",
        "elevation": 121.9
      }
    },
    {
      "type": "Feature",
      "geometry": {
        "type": "Point",
        "coordinates": [
          -78.9636,
          36.0894
        ]
      },
      "properties": {
        "name": "DURHAM 3 W, NC US",
        "elevation": 131.1
      }
    },
    {
      "type": "Feature",
      "geometry": {
        "type": "Point",
        "coordinates": [
          -83.03333,
          35.48333
        ]
      },
      "properties": {
        "name": "EAGLENEST MOUNTAIN, NC US",
        "elevation": 1000
      }
    },
    {
      "type": "Feature",
      "geometry": {
        "type": "Point",
        "coordinates": [
          -79.63333,
          35.28333
        ]
      },
      "properties": {
        "name": "EAGLE SPRINGS, NC US",
        "elevation": 203.9
      }
    },
    {
      "type": "Feature",
      "geometry": {
        "type": "Point",
        "coordinates": [
          -78.3158,
          34.3991
        ]
      },
      "properties": {
        "name": "EAST ARCADIA 2 NE, NC US",
        "elevation": 15.5
      }
    },
    {
      "type": "Feature",
      "geometry": {
        "type": "Point",
        "coordinates": [
          -82.3891,
          35.2458
        ]
      },
      "properties": {
        "name": "EAST FLAT ROCK 3 SE, NC US",
        "elevation": 527.3
      }
    },
    {
      "type": "Feature",
      "geometry": {
        "type": "Point",
        "coordinates": [
          -79.7433,
          36.4742
        ]
      },
      "properties": {
        "name": "EDEN, NC US",
        "elevation": 206.7
      }
    },
    {
      "type": "Feature",
      "geometry": {
        "type": "Point",
        "coordinates": [
          -76.5516,
          36.0164
        ]
      },
      "properties": {
        "name": "EDENTON, NC US",
        "elevation": 3
      }
    },
    {
      "type": "Feature",
      "geometry": {
        "type": "Point",
        "coordinates": [
          -82.33333,
          35.41667
        ]
      },
      "properties": {
        "name": "EDNEYVILLE, NC US",
        "elevation": 683.1
      }
    },
    {
      "type": "Feature",
      "geometry": {
        "type": "Point",
        "coordinates": [
          -83.36667,
          35.45
        ]
      },
      "properties": {
        "name": "ELA, NC US",
        "elevation": 558.1
      }
    },
    {
      "type": "Feature",
      "geometry": {
        "type": "Point",
        "coordinates": [
          -76.205,
          36.3096
        ]
      },
      "properties": {
        "name": "ELIZABETH CITY, NC US",
        "elevation": 2.4
      }
    },
    {
      "type": "Feature",
      "geometry": {
        "type": "Point",
        "coordinates": [
          -76.175,
          36.26056
        ]
      },
      "properties": {
        "name": "ELIZABETH CITY COAST GUARD AIR STATION, NC US",
        "elevation": 4
      }
    },
    {
      "type": "Feature",
      "geometry": {
        "type": "Point",
        "coordinates": [
          -78.6113,
          34.6272
        ]
      },
      "properties": {
        "name": "ELIZABETHTOWN, NC US",
        "elevation": 36.6
      }
    },
    {
      "type": "Feature",
      "geometry": {
        "type": "Point",
        "coordinates": [
          -80.86396,
          36.25465
        ]
      },
      "properties": {
        "name": "ELKIN, NC US",
        "elevation": 277.4
      }
    },
    {
      "type": "Feature",
      "geometry": {
        "type": "Point",
        "coordinates": [
          -81.4,
          36.06667
        ]
      },
      "properties": {
        "name": "ELKVILLE, NC US",
        "elevation": 348.1
      }
    },
    {
      "type": "Feature",
      "geometry": {
        "type": "Point",
        "coordinates": [
          -77.675,
          36.1686
        ]
      },
      "properties": {
        "name": "ENFIELD, NC US",
        "elevation": 33.5
      }
    },
    {
      "type": "Feature",
      "geometry": {
        "type": "Point",
        "coordinates": [
          -82.6535,
          35.5409
        ]
      },
      "properties": {
        "name": "ENKA, NC US",
        "elevation": 624.8
      }
    },
    {
      "type": "Feature",
      "geometry": {
        "type": "Point",
        "coordinates": [
          -79.0355,
          34.3125
        ]
      },
      "properties": {
        "name": "FAIR BLUFF, NC US",
        "elevation": 20.1
      }
    },
    {
      "type": "Feature",
      "geometry": {
        "type": "Point",
        "coordinates": [
          -76.3121,
          35.5361
        ]
      },
      "properties": {
        "name": "FAIRFIELD, NC US",
        "elevation": 1.5
      }
    },
    {
      "type": "Feature",
      "geometry": {
        "type": "Point",
        "coordinates": [
          -78.15,
          35.1
        ]
      },
      "properties": {
        "name": "FAISON, NC US",
        "elevation": 49.1
      }
    },
    {
      "type": "Feature",
      "geometry": {
        "type": "Point",
        "coordinates": [
          -78.6529,
          35.9808
        ]
      },
      "properties": {
        "name": "FALLS LAKE, NC US",
        "elevation": 85.3
      }
    },
    {
      "type": "Feature",
      "geometry": {
        "type": "Point",
        "coordinates": [
          -78.97417,
          35.02667
        ]
      },
      "properties": {
        "name": "FAYETTEVILLE 6 W, NC US",
        "elevation": 73.2
      }
    },
    {
      "type": "Feature",
      "geometry": {
        "type": "Point",
        "coordinates": [
          -78.8583,
          35.0583
        ]
      },
      "properties": {
        "name": "FAYETTEVILLE PWC, NC US",
        "elevation": 29.3
      }
    },
    {
      "type": "Feature",
      "geometry": {
        "type": "Point",
        "coordinates": [
          -81.91352,
          36.25251
        ]
      },
      "properties": {
        "name": "FLAT SPRINGS 1 E, NC US",
        "elevation": 1015
      }
    },
    {
      "type": "Feature",
      "geometry": {
        "type": "Point",
        "coordinates": [
          -82.4,
          36.03333
        ]
      },
      "properties": {
        "name": "FLAT TOP MOUNTAIN, NC US",
        "elevation": 878.1
      }
    },
    {
      "type": "Feature",
      "geometry": {
        "type": "Point",
        "coordinates": [
          -82.36667,
          36.03333
        ]
      },
      "properties": {
        "name": "FLAT TOP MOUNTAIN 2, NC US",
        "elevation": 719.9
      }
    },
    {
      "type": "Feature",
      "geometry": {
        "type": "Point",
        "coordinates": [
          -82.48333,
          35.45
        ]
      },
      "properties": {
        "name": "FLETCHER 2 NE, NC US",
        "elevation": 667.5
      }
    },
    {
      "type": "Feature",
      "geometry": {
        "type": "Point",
        "coordinates": [
          -82.557,
          35.4267
        ]
      },
      "properties": {
        "name": "FLETCHER 3 W, NC US",
        "elevation": 630.9
      }
    },
    {
      "type": "Feature",
      "geometry": {
        "type": "Point",
        "coordinates": [
          -83.8,
          35.45
        ]
      },
      "properties": {
        "name": "FONTANA DAM, NC US",
        "elevation": 399.9
      }
    },
    {
      "type": "Feature",
      "geometry": {
        "type": "Point",
        "coordinates": [
          -81.9311,
          35.2652
        ]
      },
      "properties": {
        "name": "FOREST CITY 6 SW, NC US",
        "elevation": 301.8
      }
    },
    {
      "type": "Feature",
      "geometry": {
        "type": "Point",
        "coordinates": [
          -81.9891,
          35.3125
        ]
      },
      "properties": {
        "name": "FOREST CITY 8 W, NC US",
        "elevation": 258.8
      }
    },
    {
      "type": "Feature",
      "geometry": {
        "type": "Point",
        "coordinates": [
          -83.56667,
          35.5
        ]
      },
      "properties": {
        "name": "FORNEY CREEK, NC US",
        "elevation": 665.1
      }
    },
    {
      "type": "Feature",
      "geometry": {
        "type": "Point",
        "coordinates": [
          -79.0239,
          35.1778
        ]
      },
      "properties": {
        "name": "FORT BRAGG WATER PLA, NC US",
        "elevation": 48.8
      }
    },
    {
      "type": "Feature",
      "geometry": {
        "type": "Point",
        "coordinates": [
          -83.38333,
          35.18333
        ]
      },
      "properties": {
        "name": "FRANKLIN, NC US",
        "elevation": 702
      }
    },
    {
      "type": "Feature",
      "geometry": {
        "type": "Point",
        "coordinates": [
          -83.36667,
          35.21667
        ]
      },
      "properties": {
        "name": "FRANKLIN POWER HOUSE, NC US",
        "elevation": 609.9
      }
    },
    {
      "type": "Feature",
      "geometry": {
        "type": "Point",
        "coordinates": [
          -83.39294,
          35.18038
        ]
      },
      "properties": {
        "name": "FRANKLIN, NC US",
        "elevation": 647.7
      }
    },
    {
      "type": "Feature",
      "geometry": {
        "type": "Point",
        "coordinates": [
          -78.45917,
          36.105
        ]
      },
      "properties": {
        "name": "FRANKLINTON, NC US",
        "elevation": 114.3
      }
    },
    {
      "type": "Feature",
      "geometry": {
        "type": "Point",
        "coordinates": [
          -78.3916,
          34.7391
        ]
      },
      "properties": {
        "name": "GARLAND 4 SW, NC US",
        "elevation": 17.1
      }
    },
    {
      "type": "Feature",
      "geometry": {
        "type": "Point",
        "coordinates": [
          -78.6608,
          35.6708
        ]
      },
      "properties": {
        "name": "GARNER, NC US",
        "elevation": 100.6
      }
    },
    {
      "type": "Feature",
      "geometry": {
        "type": "Point",
        "coordinates": [
          -75.5825,
          35.26028
        ]
      },
      "properties": {
        "name": "FRISCO, NC US",
        "elevation": 1.5
      }
    },
    {
      "type": "Feature",
      "geometry": {
        "type": "Point",
        "coordinates": [
          -75.6048,
          35.2512
        ]
      },
      "properties": {
        "name": "FRISCO 2 NNE, NC US",
        "elevation": 0
      }
    },
    {
      "type": "Feature",
      "geometry": {
        "type": "Point",
        "coordinates": [
          -82.33333,
          35.51667
        ]
      },
      "properties": {
        "name": "GARREN CREEK, NC US",
        "elevation": 798.9
      }
    },
    {
      "type": "Feature",
      "geometry": {
        "type": "Point",
        "coordinates": [
          -81.1436,
          35.2671
        ]
      },
      "properties": {
        "name": "GASTONIA, NC US",
        "elevation": 213.4
      }
    },
    {
      "type": "Feature",
      "geometry": {
        "type": "Point",
        "coordinates": [
          -76.71667,
          36.43333
        ]
      },
      "properties": {
        "name": "GATESVILLE, NC US",
        "elevation": 11.9
      }
    },
    {
      "type": "Feature",
      "geometry": {
        "type": "Point",
        "coordinates": [
          -82.05,
          35.86667
        ]
      },
      "properties": {
        "name": "GILLESPIE GAP, NC US",
        "elevation": 860.1
      }
    },
    {
      "type": "Feature",
      "geometry": {
        "type": "Point",
        "coordinates": [
          -83.63333,
          35.06667
        ]
      },
      "properties": {
        "name": "GLADE GAP, NC US",
        "elevation": 1158.8
      }
    },
    {
      "type": "Feature",
      "geometry": {
        "type": "Point",
        "coordinates": [
          -81.38333,
          36.35
        ]
      },
      "properties": {
        "name": "GLENDALE SPRINGS, NC US",
        "elevation": 887
      }
    },
    {
      "type": "Feature",
      "geometry": {
        "type": "Point",
        "coordinates": [
          -83.15,
          35.2
        ]
      },
      "properties": {
        "name": "GLENVILLE DAM, NC US",
        "elevation": 1083
      }
    },
    {
      "type": "Feature",
      "geometry": {
        "type": "Point",
        "coordinates": [
          -83.13333,
          35.23333
        ]
      },
      "properties": {
        "name": "THORPE POWERHOUSE, NC US",
        "elevation": 708.1
      }
    },
    {
      "type": "Feature",
      "geometry": {
        "type": "Point",
        "coordinates": [
          -82.85,
          35.26667
        ]
      },
      "properties": {
        "name": "GLOUCESTER GAP, NC US",
        "elevation": 951.9
      }
    },
    {
      "type": "Feature",
      "geometry": {
        "type": "Point",
        "coordinates": [
          -82.85,
          35.26667
        ]
      },
      "properties": {
        "name": "GLOUCESTER GAP, NC US",
        "elevation": 951.9
      }
    },
    {
      "type": "Feature",
      "geometry": {
        "type": "Point",
        "coordinates": [
          -77.9647,
          35.3444
        ]
      },
      "properties": {
        "name": "GOLDSBORO SEYMOUR JOHNSON AFB, NC US",
        "elevation": 33.2
      }
    },
    {
      "type": "Feature",
      "geometry": {
        "type": "Point",
        "coordinates": [
          -78.03333,
          35.35
        ]
      },
      "properties": {
        "name": "GOLDSBORO 3 SSW, NC US",
        "elevation": 24.1
      }
    },
    {
      "type": "Feature",
      "geometry": {
        "type": "Point",
        "coordinates": [
          -79.3728,
          36.0503
        ]
      },
      "properties": {
        "name": "GRAHAM 2 ENE, NC US",
        "elevation": 201.2
      }
    },
    {
      "type": "Feature",
      "geometry": {
        "type": "Point",
        "coordinates": [
          -81.8311,
          36.0963
        ]
      },
      "properties": {
        "name": "GRANDFATHER MOUNTAIN, NC US",
        "elevation": 1609.3
      }
    },
    {
      "type": "Feature",
      "geometry": {
        "type": "Point",
        "coordinates": [
          -79.8047,
          36.0811
        ]
      },
      "properties": {
        "name": "GREENSBORO WTP, NC US",
        "elevation": 233.2
      }
    },
    {
      "type": "Feature",
      "geometry": {
        "type": "Point",
        "coordinates": [
          -79.9432,
          36.0969
        ]
      },
      "properties": {
        "name": "GREENSBORO AIRPORT, NC US",
        "elevation": 271.3
      }
    },
    {
      "type": "Feature",
      "geometry": {
        "type": "Point",
        "coordinates": [
          -77.3984,
          35.64
        ]
      },
      "properties": {
        "name": "GREENVILLE, NC US",
        "elevation": 9.8
      }
    },
    {
      "type": "Feature",
      "geometry": {
        "type": "Point",
        "coordinates": [
          -77.38333,
          35.6
        ]
      },
      "properties": {
        "name": "GREENVILLE 2, NC US",
        "elevation": 21
      }
    },
    {
      "type": "Feature",
      "geometry": {
        "type": "Point",
        "coordinates": [
          -77.38333,
          35.56667
        ]
      },
      "properties": {
        "name": "GREENVILLE 3 S, NC US",
        "elevation": 21
      }
    },
    {
      "type": "Feature",
      "geometry": {
        "type": "Point",
        "coordinates": [
          -79.6922,
          34.8872
        ]
      },
      "properties": {
        "name": "HAMLET, NC US",
        "elevation": 106.7
      }
    },
    {
      "type": "Feature",
      "geometry": {
        "type": "Point",
        "coordinates": [
          -75.71667,
          35.21667
        ]
      },
      "properties": {
        "name": "HATTERAS, NC US",
        "elevation": 4.6
      }
    },
    {
      "type": "Feature",
      "geometry": {
        "type": "Point",
        "coordinates": [
          -84.03333,
          35.35
        ]
      },
      "properties": {
        "name": "HAW KNOB STRATTON MD, NC US",
        "elevation": 1414.9
      }
    },
    {
      "type": "Feature",
      "geometry": {
        "type": "Point",
        "coordinates": [
          -79.383,
          36.0638
        ]
      },
      "properties": {
        "name": "HAW RIVER 1 E, NC US",
        "elevation": 193.9
      }
    },
    {
      "type": "Feature",
      "geometry": {
        "type": "Point",
        "coordinates": [
          -79.36722,
          36.08694
        ]
      },
      "properties": {
        "name": "HAW RIVER, NC US",
        "elevation": 143.3
      }
    },
    {
      "type": "Feature",
      "geometry": {
        "type": "Point",
        "coordinates": [
          -83.825,
          35.0533
        ]
      },
      "properties": {
        "name": "HAYESVILLE 1 SW, NC US",
        "elevation": 579.1
      }
    },
    {
      "type": "Feature",
      "geometry": {
        "type": "Point",
        "coordinates": [
          -83.76667,
          35.08333
        ]
      },
      "properties": {
        "name": "HAYESVILLE 4 NE, NC US",
        "elevation": 625.1
      }
    },
    {
      "type": "Feature",
      "geometry": {
        "type": "Point",
        "coordinates": [
          -82.91667,
          35.3
        ]
      },
      "properties": {
        "name": "HAYWOOD GAP, NC US",
        "elevation": 1645.9
      }
    },
    {
      "type": "Feature",
      "geometry": {
        "type": "Point",
        "coordinates": [
          -81.50389,
          36.56306
        ]
      },
      "properties": {
        "name": "HELTON, NC US",
        "elevation": 865.6
      }
    },
    {
      "type": "Feature",
      "geometry": {
        "type": "Point",
        "coordinates": [
          -78.4119,
          36.3481
        ]
      },
      "properties": {
        "name": "HENDERSON 2 NNW, NC US",
        "elevation": 146.3
      }
    },
    {
      "type": "Feature",
      "geometry": {
        "type": "Point",
        "coordinates": [
          -82.4491,
          35.3297
        ]
      },
      "properties": {
        "name": "HENDERSONVILLE 1 NE, NC US",
        "elevation": 658.4
      }
    },
    {
      "type": "Feature",
      "geometry": {
        "type": "Point",
        "coordinates": [
          -82.48333,
          35.31667
        ]
      },
      "properties": {
        "name": "HENDERSONVILLE TVA, NC US",
        "elevation": 668.1
      }
    },
    {
      "type": "Feature",
      "geometry": {
        "type": "Point",
        "coordinates": [
          -82.56667,
          35.38333
        ]
      },
      "properties": {
        "name": "HENDERSONVILLE 8 WNW, NC US",
        "elevation": 627.9
      }
    },
    {
      "type": "Feature",
      "geometry": {
        "type": "Point",
        "coordinates": [
          -81.35,
          35.75
        ]
      },
      "properties": {
        "name": "HICKORY, NC US",
        "elevation": 355.1
      }
    },
    {
      "type": "Feature",
      "geometry": {
        "type": "Point",
        "coordinates": [
          -81.38229,
          35.74207
        ]
      },
      "properties": {
        "name": "HICKORY FAA AIRPORT, NC US",
        "elevation": 358.1
      }
    },
    {
      "type": "Feature",
      "geometry": {
        "type": "Point",
        "coordinates": [
          -83.2,
          35.05
        ]
      },
      "properties": {
        "name": "HIGHLANDS, NC US",
        "elevation": 1158.8
      }
    },
    {
      "type": "Feature",
      "geometry": {
        "type": "Point",
        "coordinates": [
          -83.19822,
          35.05646
        ]
      },
      "properties": {
        "name": "HIGHLANDS, NC US",
        "elevation": 1173.5
      }
    },
    {
      "type": "Feature",
      "geometry": {
        "type": "Point",
        "coordinates": [
          -79.9722,
          35.9672
        ]
      },
      "properties": {
        "name": "HIGH POINT, NC US",
        "elevation": 274.3
      }
    },
    {
      "type": "Feature",
      "geometry": {
        "type": "Point",
        "coordinates": [
          -84.18333,
          35.15
        ]
      },
      "properties": {
        "name": "HIWASSEE DAM, NC US",
        "elevation": 454.2
      }
    },
    {
      "type": "Feature",
      "geometry": {
        "type": "Point",
        "coordinates": [
          -84.18333,
          35.15
        ]
      },
      "properties": {
        "name": "HIWASSEE DAM 2, NC US",
        "elevation": 399.9
      }
    },
    {
      "type": "Feature",
      "geometry": {
        "type": "Point",
        "coordinates": [
          -76.58833,
          35.20528
        ]
      },
      "properties": {
        "name": "HOBUCKEN BRIDGE, NC US",
        "elevation": 2.4
      }
    },
    {
      "type": "Feature",
      "geometry": {
        "type": "Point",
        "coordinates": [
          -77.30306,
          34.83583
        ]
      },
      "properties": {
        "name": "HOFMANN FOREST, NC US",
        "elevation": 14.3
      }
    },
    {
      "type": "Feature",
      "geometry": {
        "type": "Point",
        "coordinates": [
          -82.566667,
          35.383333
        ]
      },
      "properties": {
        "name": "HORSESHOE TVA 281, NC US",
        "elevation": 652.3
      }
    },
    {
      "type": "Feature",
      "geometry": {
        "type": "Point",
        "coordinates": [
          -82.8313,
          35.89536
        ]
      },
      "properties": {
        "name": "HOT SPRINGS, NC US",
        "elevation": 410
      }
    },
    {
      "type": "Feature",
      "geometry": {
        "type": "Point",
        "coordinates": [
          -82.83333,
          35.9
        ]
      },
      "properties": {
        "name": "HOT SPRINGS 2, NC US",
        "elevation": 451.1
      }
    },
    {
      "type": "Feature",
      "geometry": {
        "type": "Point",
        "coordinates": [
          -80.83333,
          35.38333
        ]
      },
      "properties": {
        "name": "HUNTERSVILLE 2 S, NC US"
      }
    },
    {
      "type": "Feature",
      "geometry": {
        "type": "Point",
        "coordinates": [
          -83.95,
          35.2
        ]
      },
      "properties": {
        "name": "HYATT CREEK, NC US",
        "elevation": 747.1
      }
    },
    {
      "type": "Feature",
      "geometry": {
        "type": "Point",
        "coordinates": [
          -81.45889,
          36.31194
        ]
      },
      "properties": {
        "name": "IDLEWILD, NC US",
        "elevation": 883.9
      }
    },
    {
      "type": "Feature",
      "geometry": {
        "type": "Point",
        "coordinates": [
          -82.5,
          35.81667
        ]
      },
      "properties": {
        "name": "IVY, NC US",
        "elevation": 655.9
      }
    },
    {
      "type": "Feature",
      "geometry": {
        "type": "Point",
        "coordinates": [
          -83.28333,
          35.4
        ]
      },
      "properties": {
        "name": "JACK COVE, NC US",
        "elevation": 586.1
      }
    },
    {
      "type": "Feature",
      "geometry": {
        "type": "Point",
        "coordinates": [
          -77.4239,
          36.3967
        ]
      },
      "properties": {
        "name": "JACKSON, NC US",
        "elevation": 39.6
      }
    },
    {
      "type": "Feature",
      "geometry": {
        "type": "Point",
        "coordinates": [
          -79.6772,
          35.1858
        ]
      },
      "properties": {
        "name": "JACKSON SPRINGS 5 WNW, NC US",
        "elevation": 222.5
      }
    },
    {
      "type": "Feature",
      "geometry": {
        "type": "Point",
        "coordinates": [
          -77.401,
          34.7965
        ]
      },
      "properties": {
        "name": "JACKSONVILLE EOC, NC US",
        "elevation": 5.2
      }
    },
    {
      "type": "Feature",
      "geometry": {
        "type": "Point",
        "coordinates": [
          -81.42964,
          36.41747
        ]
      },
      "properties": {
        "name": "JEFFERSON, NC US",
        "elevation": 844.3
      }
    },
    {
      "type": "Feature",
      "geometry": {
        "type": "Point",
        "coordinates": [
          -78.033333,
          35
        ]
      },
      "properties": {
        "name": "KENANSVILLE, NC US",
        "elevation": 33.5
      }
    },
    {
      "type": "Feature",
      "geometry": {
        "type": "Point",
        "coordinates": [
          -75.66667,
          36.01667
        ]
      },
      "properties": {
        "name": "KILL DEVIL HILLS N M, NC US",
        "elevation": 3
      }
    },
    {
      "type": "Feature",
      "geometry": {
        "type": "Point",
        "coordinates": [
          -80.3624,
          36.2838
        ]
      },
      "properties": {
        "name": "KING, NC US",
        "elevation": 268.2
      }
    },
    {
      "type": "Feature",
      "geometry": {
        "type": "Point",
        "coordinates": [
          -77.5432,
          35.1967
        ]
      },
      "properties": {
        "name": "KINSTON 7 SE, NC US",
        "elevation": 7.3
      }
    },
    {
      "type": "Feature",
      "geometry": {
        "type": "Point",
        "coordinates": [
          -77.5722,
          35.2975
        ]
      },
      "properties": {
        "name": "KINSTON AG RESEARCH, NC US",
        "elevation": 18.3
      }
    },
    {
      "type": "Feature",
      "geometry": {
        "type": "Point",
        "coordinates": [
          -82.2,
          35.4
        ]
      },
      "properties": {
        "name": "LAKE LURE, NC US",
        "elevation": 368.8
      }
    },
    {
      "type": "Feature",
      "geometry": {
        "type": "Point",
        "coordinates": [
          -82.1877,
          35.4205
        ]
      },
      "properties": {
        "name": "LAKE LURE 2, NC US",
        "elevation": 317
      }
    },
    {
      "type": "Feature",
      "geometry": {
        "type": "Point",
        "coordinates": [
          -78.83333,
          36.15
        ]
      },
      "properties": {
        "name": "LAKE MICHIE, NC US",
        "elevation": 100.9
      }
    },
    {
      "type": "Feature",
      "geometry": {
        "type": "Point",
        "coordinates": [
          -78.68333,
          35.75
        ]
      },
      "properties": {
        "name": "LAKE RALEIGH, NC US",
        "elevation": 92
      }
    },
    {
      "type": "Feature",
      "geometry": {
        "type": "Point",
        "coordinates": [
          -82.9509,
          35.0966
        ]
      },
      "properties": {
        "name": "LAKE TOXAWAY 2 SW, NC US",
        "elevation": 975.4
      }
    },
    {
      "type": "Feature",
      "geometry": {
        "type": "Point",
        "coordinates": [
          -83.08333,
          35.15
        ]
      },
      "properties": {
        "name": "LAUREL MOUNTAIN, NC US",
        "elevation": 1299.1
      }
    },
    {
      "type": "Feature",
      "geometry": {
        "type": "Point",
        "coordinates": [
          -81.26667,
          36.41667
        ]
      },
      "properties": {
        "name": "LAUREL SPRINGS 1 MI, NC US",
        "elevation": 900.1
      }
    },
    {
      "type": "Feature",
      "geometry": {
        "type": "Point",
        "coordinates": [
          -79.4664,
          34.7508
        ]
      },
      "properties": {
        "name": "LAURINBURG, NC US",
        "elevation": 64
      }
    },
    {
      "type": "Feature",
      "geometry": {
        "type": "Point",
        "coordinates": [
          -82.7,
          35.65
        ]
      },
      "properties": {
        "name": "LEICESTER, NC US",
        "elevation": 662
      }
    },
    {
      "type": "Feature",
      "geometry": {
        "type": "Point",
        "coordinates": [
          -81.5374,
          35.9147
        ]
      },
      "properties": {
        "name": "LENOIR, NC US",
        "elevation": 352
      }
    },
    {
      "type": "Feature",
      "geometry": {
        "type": "Point",
        "coordinates": [
          -84.15,
          35.05
        ]
      },
      "properties": {
        "name": "LETITIA, NC US",
        "elevation": 552
      }
    },
    {
      "type": "Feature",
      "geometry": {
        "type": "Point",
        "coordinates": [
          -77.1708,
          36.1325
        ]
      },
      "properties": {
        "name": "LEWISTON, NC US",
        "elevation": 15.2
      }
    },
    {
      "type": "Feature",
      "geometry": {
        "type": "Point",
        "coordinates": [
          -80.2597,
          35.8458
        ]
      },
      "properties": {
        "name": "LEXINGTON, NC US",
        "elevation": 231.6
      }
    },
    {
      "type": "Feature",
      "geometry": {
        "type": "Point",
        "coordinates": [
          -80.26667,
          35.9
        ]
      },
      "properties": {
        "name": "LEXINGTON 7 N, NC US",
        "elevation": 262.1
      }
    },
    {
      "type": "Feature",
      "geometry": {
        "type": "Point",
        "coordinates": [
          -81.3296,
          35.4606
        ]
      },
      "properties": {
        "name": "LINCOLNTON 4 W, NC US",
        "elevation": 270.4
      }
    },
    {
      "type": "Feature",
      "geometry": {
        "type": "Point",
        "coordinates": [
          -81.2799,
          35.48
        ]
      },
      "properties": {
        "name": "LINCOLNTON 2 NW, NC US",
        "elevation": 245.4
      }
    },
    {
      "type": "Feature",
      "geometry": {
        "type": "Point",
        "coordinates": [
          -83.95,
          35.38333
        ]
      },
      "properties": {
        "name": "LITTLE SANTEETLAH CR, NC US",
        "elevation": 1417.9
      }
    },
    {
      "type": "Feature",
      "geometry": {
        "type": "Point",
        "coordinates": [
          -82.1,
          35.85
        ]
      },
      "properties": {
        "name": "LITTLE SWITZERLAND, NC US",
        "elevation": 1083
      }
    },
    {
      "type": "Feature",
      "geometry": {
        "type": "Point",
        "coordinates": [
          -78.5464,
          34.0106
        ]
      },
      "properties": {
        "name": "LONGWOOD, NC US",
        "elevation": 12.2
      }
    },
    {
      "type": "Feature",
      "geometry": {
        "type": "Point",
        "coordinates": [
          -78.3039,
          36.1028
        ]
      },
      "properties": {
        "name": "LOUISBURG, NC US",
        "elevation": 79.2
      }
    },
    {
      "type": "Feature",
      "geometry": {
        "type": "Point",
        "coordinates": [
          -79.0022,
          34.3902
        ]
      },
      "properties": {
        "name": "LUMBER RIVER STATE PARK, NC US",
        "elevation": 29.3
      }
    },
    {
      "type": "Feature",
      "geometry": {
        "type": "Point",
        "coordinates": [
          -79.025,
          34.6269
        ]
      },
      "properties": {
        "name": "LUMBERTON, NC US",
        "elevation": 34.1
      }
    },
    {
      "type": "Feature",
      "geometry": {
        "type": "Point",
        "coordinates": [
          -79.0591,
          34.608
        ]
      },
      "properties": {
        "name": "LUMBERTON REGIONAL AIRPORT, NC US",
        "elevation": 36.9
      }
    },
    {
      "type": "Feature",
      "geometry": {
        "type": "Point",
        "coordinates": [
          -79.0239,
          35.1778
        ]
      },
      "properties": {
        "name": "FORT BRAGG WATER PLA, NC US",
        "elevation": 48.8
      }
    },
    {
      "type": "Feature",
      "geometry": {
        "type": "Point",
        "coordinates": [
          -78.9,
          36.16667
        ]
      },
      "properties": {
        "name": "MANGUMS STORE 4 WSW, NC US",
        "elevation": 116.1
      }
    },
    {
      "type": "Feature",
      "geometry": {
        "type": "Point",
        "coordinates": [
          -75.68333,
          35.91667
        ]
      },
      "properties": {
        "name": "MANTEO, NC US",
        "elevation": 3
      }
    },
    {
      "type": "Feature",
      "geometry": {
        "type": "Point",
        "coordinates": [
          -75.7,
          35.9173
        ]
      },
      "properties": {
        "name": "MANTEO AIRPORT, NC US",
        "elevation": 4
      }
    },
    {
      "type": "Feature",
      "geometry": {
        "type": "Point",
        "coordinates": [
          -82.95,
          35.75
        ]
      },
      "properties": {
        "name": "MAPLE SPRINGS GAP, NC US",
        "elevation": 1235
      }
    },
    {
      "type": "Feature",
      "geometry": {
        "type": "Point",
        "coordinates": [
          -82.93333,
          35.73333
        ]
      },
      "properties": {
        "name": "MAPLE SPRING GAP 2, NC US",
        "elevation": 1156.1
      }
    },
    {
      "type": "Feature",
      "geometry": {
        "type": "Point",
        "coordinates": [
          -82.0084,
          35.6847
        ]
      },
      "properties": {
        "name": "MARION, NC US",
        "elevation": 429.8
      }
    },
    {
      "type": "Feature",
      "geometry": {
        "type": "Point",
        "coordinates": [
          -82.66573,
          35.80336
        ]
      },
      "properties": {
        "name": "MARSHALL, NC US",
        "elevation": 585.2
      }
    },
    {
      "type": "Feature",
      "geometry": {
        "type": "Point",
        "coordinates": [
          -81.8,
          36.25
        ]
      },
      "properties": {
        "name": "MAST, NC US",
        "elevation": 816.9
      }
    },
    {
      "type": "Feature",
      "geometry": {
        "type": "Point",
        "coordinates": [
          -82.95,
          35.81667
        ]
      },
      "properties": {
        "name": "MAX PATCH MOUNTAIN, TN US",
        "elevation": 1225.3
      }
    },
    {
      "type": "Feature",
      "geometry": {
        "type": "Point",
        "coordinates": [
          -77.30306,
          34.83583
        ]
      },
      "properties": {
        "name": "HOFMANN FOREST, NC US",
        "elevation": 14.3
      }
    },
    {
      "type": "Feature",
      "geometry": {
        "type": "Point",
        "coordinates": [
          -81.0777,
          35.2625
        ]
      },
      "properties": {
        "name": "MCADENVILLE, NC US",
        "elevation": 185.9
      }
    },
    {
      "type": "Feature",
      "geometry": {
        "type": "Point",
        "coordinates": [
          -78.7,
          35.66667
        ]
      },
      "properties": {
        "name": "MC CULLERS 1 W, NC US",
        "elevation": 134.1
      }
    },
    {
      "type": "Feature",
      "geometry": {
        "type": "Point",
        "coordinates": [
          -82.46667,
          35.95
        ]
      },
      "properties": {
        "name": "MCKINNEY GAP, NC US",
        "elevation": 1207.9
      }
    },
    {
      "type": "Feature",
      "geometry": {
        "type": "Point",
        "coordinates": [
          -76.63333,
          35.2
        ]
      },
      "properties": {
        "name": "MESIC, NC US",
        "elevation": 3
      }
    },
    {
      "type": "Feature",
      "geometry": {
        "type": "Point",
        "coordinates": [
          -82.56667,
          35.38333
        ]
      },
      "properties": {
        "name": "MILLS RIVER, NC US",
        "elevation": 655.9
      }
    },
    {
      "type": "Feature",
      "geometry": {
        "type": "Point",
        "coordinates": [
          -80.49777,
          35.84219
        ]
      },
      "properties": {
        "name": "MOCKSVILLE 5 SE, NC US",
        "elevation": 207.3
      }
    },
    {
      "type": "Feature",
      "geometry": {
        "type": "Point",
        "coordinates": [
          -79.05,
          35.58333
        ]
      },
      "properties": {
        "name": "MONCURE 3 SE, NC US",
        "elevation": 61.6
      }
    },
    {
      "type": "Feature",
      "geometry": {
        "type": "Point",
        "coordinates": [
          -80.5233,
          34.9797
        ]
      },
      "properties": {
        "name": "MONROE 2 SE, NC US",
        "elevation": 167.6
      }
    },
    {
      "type": "Feature",
      "geometry": {
        "type": "Point",
        "coordinates": [
          -82.31667,
          35.65
        ]
      },
      "properties": {
        "name": "MONTREAT, NC US",
        "elevation": 793.1
      }
    },
    {
      "type": "Feature",
      "geometry": {
        "type": "Point",
        "coordinates": [
          -80.8391,
          35.5938
        ]
      },
      "properties": {
        "name": "MOORESVILLE 2 WNW, NC US",
        "elevation": 265.2
      }
    },
    {
      "type": "Feature",
      "geometry": {
        "type": "Point",
        "coordinates": [
          -78.1094,
          34.458
        ]
      },
      "properties": {
        "name": "MOORES CREEK NATIONAL BATTLEFIELD, NC US",
        "elevation": 6.7
      }
    },
    {
      "type": "Feature",
      "geometry": {
        "type": "Point",
        "coordinates": [
          -76.7357,
          34.7336
        ]
      },
      "properties": {
        "name": "MOREHEAD CITY 2 WNW, NC US",
        "elevation": 3
      }
    },
    {
      "type": "Feature",
      "geometry": {
        "type": "Point",
        "coordinates": [
          -81.7211,
          35.6808
        ]
      },
      "properties": {
        "name": "MORGANTON AG 4 E, NC US",
        "elevation": 378
      }
    },
    {
      "type": "Feature",
      "geometry": {
        "type": "Point",
        "coordinates": [
          -81.67273,
          35.72972
        ]
      },
      "properties": {
        "name": "MORGANTON, NC US",
        "elevation": 359.7
      }
    },
    {
      "type": "Feature",
      "geometry": {
        "type": "Point",
        "coordinates": [
          -81.78333,
          35.98333
        ]
      },
      "properties": {
        "name": "MORTIMER, NC US",
        "elevation": 458.1
      }
    },
    {
      "type": "Feature",
      "geometry": {
        "type": "Point",
        "coordinates": [
          -80.6508,
          36.4992
        ]
      },
      "properties": {
        "name": "MOUNT AIRY 2 W, NC US",
        "elevation": 317.3
      }
    },
    {
      "type": "Feature",
      "geometry": {
        "type": "Point",
        "coordinates": [
          -80.0636,
          35.2078
        ]
      },
      "properties": {
        "name": "MOUNT GILEAD 4 W, NC US",
        "elevation": 67.1
      }
    },
    {
      "type": "Feature",
      "geometry": {
        "type": "Point",
        "coordinates": [
          -80.9868,
          35.3338
        ]
      },
      "properties": {
        "name": "MOUNT HOLLY 4 NE, NC US",
        "elevation": 185.9
      }
    },
    {
      "type": "Feature",
      "geometry": {
        "type": "Point",
        "coordinates": [
          -82.26667,
          35.76667
        ]
      },
      "properties": {
        "name": "MOUNT MITCHELL TVA, NC US",
        "elevation": 2023.9
      }
    },
    {
      "type": "Feature",
      "geometry": {
        "type": "Point",
        "coordinates": [
          -82.28333,
          35.73333
        ]
      },
      "properties": {
        "name": "MOUNT MITCHELL 2 SSW, NC US",
        "elevation": 1991.9
      }
    },
    {
      "type": "Feature",
      "geometry": {
        "type": "Point",
        "coordinates": [
          -82.2711,
          35.7585
        ]
      },
      "properties": {
        "name": "MOUNT MITCHELL, NC US",
        "elevation": 1902
      }
    },
    {
      "type": "Feature",
      "geometry": {
        "type": "Point",
        "coordinates": [
          -78.06667,
          35.2
        ]
      },
      "properties": {
        "name": "MOUNT OLIVE, NC US",
        "elevation": 52.1
      }
    },
    {
      "type": "Feature",
      "geometry": {
        "type": "Point",
        "coordinates": [
          -77.98908,
          35.13763
        ]
      },
      "properties": {
        "name": "MOUNT OLIVE 6 SE, NC US",
        "elevation": 49.4
      }
    },
    {
      "type": "Feature",
      "geometry": {
        "type": "Point",
        "coordinates": [
          -82.75,
          35.43333
        ]
      },
      "properties": {
        "name": "MOUNT PISGAH, NC US",
        "elevation": 1574
      }
    },
    {
      "type": "Feature",
      "geometry": {
        "type": "Point",
        "coordinates": [
          -80.4308,
          35.4116
        ]
      },
      "properties": {
        "name": "MOUNT PLEASANT, NC US",
        "elevation": 225.6
      }
    },
    {
      "type": "Feature",
      "geometry": {
        "type": "Point",
        "coordinates": [
          -83.08333,
          35.71667
        ]
      },
      "properties": {
        "name": "MOUNT STERLING, NC US",
        "elevation": 890.9
      }
    },
    {
      "type": "Feature",
      "geometry": {
        "type": "Point",
        "coordinates": [
          -77.0803,
          36.4521
        ]
      },
      "properties": {
        "name": "MURFREESBORO, NC US",
        "elevation": 30.5
      }
    },
    {
      "type": "Feature",
      "geometry": {
        "type": "Point",
        "coordinates": [
          -83.9684,
          35.0714
        ]
      },
      "properties": {
        "name": "MURPHY 4 ESE, NC US",
        "elevation": 487.7
      }
    },
    {
      "type": "Feature",
      "geometry": {
        "type": "Point",
        "coordinates": [
          -83.81667,
          35
        ]
      },
      "properties": {
        "name": "MYERS CHAPEL, NC US",
        "elevation": 598
      }
    },
    {
      "type": "Feature",
      "geometry": {
        "type": "Point",
        "coordinates": [
          -83.68333,
          35.26667
        ]
      },
      "properties": {
        "name": "NANTAHALA, NC US",
        "elevation": 613
      }
    },
    {
      "type": "Feature",
      "geometry": {
        "type": "Point",
        "coordinates": [
          -83.65,
          35.2
        ]
      },
      "properties": {
        "name": "NANTAHALA DAM, NC US",
        "elevation": 900.1
      }
    },
    {
      "type": "Feature",
      "geometry": {
        "type": "Point",
        "coordinates": [
          -77.96667,
          35.96667
        ]
      },
      "properties": {
        "name": "NASHVILLE, NC US",
        "elevation": 64
      }
    },
    {
      "type": "Feature",
      "geometry": {
        "type": "Point",
        "coordinates": [
          -83.53333,
          35.33333
        ]
      },
      "properties": {
        "name": "NEEDMORE, NC US",
        "elevation": 558.1
      }
    },
    {
      "type": "Feature",
      "geometry": {
        "type": "Point",
        "coordinates": [
          -78.56667,
          35.91667
        ]
      },
      "properties": {
        "name": "NEUSE 2 NE, NC US",
        "elevation": 85.3
      }
    },
    {
      "type": "Feature",
      "geometry": {
        "type": "Point",
        "coordinates": [
          -76.877,
          34.7763
        ]
      },
      "properties": {
        "name": "NEWPORT MOREHEAD CITY WEATHER FORECAST OFFICE, NC US",
        "elevation": 9.1
      }
    },
    {
      "type": "Feature",
      "geometry": {
        "type": "Point",
        "coordinates": [
          -77.08333,
          35.13333
        ]
      },
      "properties": {
        "name": "NEW BERN 3 NW, NC US",
        "elevation": 3
      }
    },
    {
      "type": "Feature",
      "geometry": {
        "type": "Point",
        "coordinates": [
          -77.048,
          35.0677
        ]
      },
      "properties": {
        "name": "NEW BERN CRAVEN CO REGIONAL AIRPORT, NC US",
        "elevation": 5.8
      }
    },
    {
      "type": "Feature",
      "geometry": {
        "type": "Point",
        "coordinates": [
          -78.9158,
          35.6808
        ]
      },
      "properties": {
        "name": "NEW HILL, NC US",
        "elevation": 97.5
      }
    },
    {
      "type": "Feature",
      "geometry": {
        "type": "Point",
        "coordinates": [
          -76.21083,
          35.44861
        ]
      },
      "properties": {
        "name": "NEW HOLLAND, NC US",
        "elevation": 0.6
      }
    },
    {
      "type": "Feature",
      "geometry": {
        "type": "Point",
        "coordinates": [
          -79.06667,
          35.65
        ]
      },
      "properties": {
        "name": "NEW HOPE DAM, NC US",
        "elevation": 95.1
      }
    },
    {
      "type": "Feature",
      "geometry": {
        "type": "Point",
        "coordinates": [
          -83.5,
          35.5
        ]
      },
      "properties": {
        "name": "NOLAND CREEK, NC US",
        "elevation": 769
      }
    },
    {
      "type": "Feature",
      "geometry": {
        "type": "Point",
        "coordinates": [
          -82.33333,
          35.7
        ]
      },
      "properties": {
        "name": "NORTH FORK, NC US",
        "elevation": 842.8
      }
    },
    {
      "type": "Feature",
      "geometry": {
        "type": "Point",
        "coordinates": [
          -82.34446,
          35.66308
        ]
      },
      "properties": {
        "name": "NORTH FORK 2, NC US",
        "elevation": 755.9
      }
    },
    {
      "type": "Feature",
      "geometry": {
        "type": "Point",
        "coordinates": [
          -81.1536,
          36.1638
        ]
      },
      "properties": {
        "name": "NORTH WILKESBORO, NC US",
        "elevation": 341.4
      }
    },
    {
      "type": "Feature",
      "geometry": {
        "type": "Point",
        "coordinates": [
          -80.9775,
          36.07306
        ]
      },
      "properties": {
        "name": "N WILKESBORO 11 SE, NC US",
        "elevation": 320
      }
    },
    {
      "type": "Feature",
      "geometry": {
        "type": "Point",
        "coordinates": [
          -80.1,
          35.23333
        ]
      },
      "properties": {
        "name": "NORWOOD 1 ENE, NC US",
        "elevation": 88.4
      }
    },
    {
      "type": "Feature",
      "geometry": {
        "type": "Point",
        "coordinates": [
          -80.18333,
          35.16667
        ]
      },
      "properties": {
        "name": "NORWOOD 6 SW, NC US",
        "elevation": 75.9
      }
    },
    {
      "type": "Feature",
      "geometry": {
        "type": "Point",
        "coordinates": [
          -80.12444,
          35.2475
        ]
      },
      "properties": {
        "name": "NORWOOD 2 NE, NC US",
        "elevation": 88.4
      }
    },
    {
      "type": "Feature",
      "geometry": {
        "type": "Point",
        "coordinates": [
          -80.2275,
          35.22056
        ]
      },
      "properties": {
        "name": "NORWOOD 6 W, NC US",
        "elevation": 137.2
      }
    },
    {
      "type": "Feature",
      "geometry": {
        "type": "Point",
        "coordinates": [
          -83.3056,
          35.5157
        ]
      },
      "properties": {
        "name": "OCONALUFTEE, NC US",
        "elevation": 621.8
      }
    },
    {
      "type": "Feature",
      "geometry": {
        "type": "Point",
        "coordinates": [
          -75.9872,
          35.1075
        ]
      },
      "properties": {
        "name": "OCRACOKE, NC US",
        "elevation": 1.2
      }
    },
    {
      "type": "Feature",
      "geometry": {
        "type": "Point",
        "coordinates": [
          -82.1236,
          35.6672
        ]
      },
      "properties": {
        "name": "OLD FORT AG 3 W, NC US",
        "elevation": 434.3
      }
    },
    {
      "type": "Feature",
      "geometry": {
        "type": "Point",
        "coordinates": [
          -82.18333,
          35.61667
        ]
      },
      "properties": {
        "name": "OLD FORT, NC US",
        "elevation": 442
      }
    },
    {
      "type": "Feature",
      "geometry": {
        "type": "Point",
        "coordinates": [
          -77.5113,
          34.925
        ]
      },
      "properties": {
        "name": "RICHLANDS, NC US",
        "elevation": 6.1
      }
    },
    {
      "type": "Feature",
      "geometry": {
        "type": "Point",
        "coordinates": [
          -76.7,
          35.03333
        ]
      },
      "properties": {
        "name": "ORIENTAL, NC US",
        "elevation": 3
      }
    },
    {
      "type": "Feature",
      "geometry": {
        "type": "Point",
        "coordinates": [
          -83.33333,
          35.08333
        ]
      },
      "properties": {
        "name": "OTTO, NC US",
        "elevation": 702
      }
    },
    {
      "type": "Feature",
      "geometry": {
        "type": "Point",
        "coordinates": [
          -82.96667,
          35.21667
        ]
      },
      "properties": {
        "name": "OWENS GAP, NC US",
        "elevation": 1074.1
      }
    },
    {
      "type": "Feature",
      "geometry": {
        "type": "Point",
        "coordinates": [
          -78.61667,
          36.3
        ]
      },
      "properties": {
        "name": "OXFORD 1 E, NC US",
        "elevation": 152.4
      }
    },
    {
      "type": "Feature",
      "geometry": {
        "type": "Point",
        "coordinates": [
          -78.6108,
          36.3023
        ]
      },
      "properties": {
        "name": "OXFORD AG, NC US",
        "elevation": 152.4
      }
    },
    {
      "type": "Feature",
      "geometry": {
        "type": "Point",
        "coordinates": [
          -81.66667,
          36.45
        ]
      },
      "properties": {
        "name": "PARKER 1 E, NC US",
        "elevation": 1204.9
      }
    },
    {
      "type": "Feature",
      "geometry": {
        "type": "Point",
        "coordinates": [
          -81.565,
          35.9983
        ]
      },
      "properties": {
        "name": "PATTERSON, NC US",
        "elevation": 387.1
      }
    },
    {
      "type": "Feature",
      "geometry": {
        "type": "Point",
        "coordinates": [
          -77.0859,
          35.0556
        ]
      },
      "properties": {
        "name": "PERRYTOWN, NC US",
        "elevation": 8.5
      }
    },
    {
      "type": "Feature",
      "geometry": {
        "type": "Point",
        "coordinates": [
          -80.3699,
          36.1558
        ]
      },
      "properties": {
        "name": "PFAFFTOWN, NC US",
        "elevation": 289.6
      }
    },
    {
      "type": "Feature",
      "geometry": {
        "type": "Point",
        "coordinates": [
          -79.46667,
          35.2
        ]
      },
      "properties": {
        "name": "PINEHURST SOUTHERN P, NC US",
        "elevation": 167.9
      }
    },
    {
      "type": "Feature",
      "geometry": {
        "type": "Point",
        "coordinates": [
          -82.78333,
          35.35
        ]
      },
      "properties": {
        "name": "PINK BEDS, NC US",
        "elevation": 1003.1
      }
    },
    {
      "type": "Feature",
      "geometry": {
        "type": "Point",
        "coordinates": [
          -82.6475,
          35.2719
        ]
      },
      "properties": {
        "name": "PISGAH FOREST 3 NE, NC US",
        "elevation": 667.5
      }
    },
    {
      "type": "Feature",
      "geometry": {
        "type": "Point",
        "coordinates": [
          -82,
          36.03333
        ]
      },
      "properties": {
        "name": "PLUMTREE, NC US",
        "elevation": 885.1
      }
    },
    {
      "type": "Feature",
      "geometry": {
        "type": "Point",
        "coordinates": [
          -76.6592,
          35.8723
        ]
      },
      "properties": {
        "name": "PLYMOUTH 5 E, NC US",
        "elevation": 6.1
      }
    },
    {
      "type": "Feature",
      "geometry": {
        "type": "Point",
        "coordinates": [
          -82.25,
          35.63333
        ]
      },
      "properties": {
        "name": "POINT LOOKOUT, NC US",
        "elevation": 732.1
      }
    },
    {
      "type": "Feature",
      "geometry": {
        "type": "Point",
        "coordinates": [
          -80.16389,
          35.02028
        ]
      },
      "properties": {
        "name": "POLKTON 2 NE, NC US",
        "elevation": 93
      }
    },
    {
      "type": "Feature",
      "geometry": {
        "type": "Point",
        "coordinates": [
          -79.00889,
          35.17389
        ]
      },
      "properties": {
        "name": "FAYETTEVILLE POPE AFB, NC US",
        "elevation": 66.4
      }
    },
    {
      "type": "Feature",
      "geometry": {
        "type": "Point",
        "coordinates": [
          -82.35,
          36.06667
        ]
      },
      "properties": {
        "name": "POPLAR, NC US",
        "elevation": 609.9
      }
    },
    {
      "type": "Feature",
      "geometry": {
        "type": "Point",
        "coordinates": [
          -81.1,
          36.05
        ]
      },
      "properties": {
        "name": "PORES KNOB 4 ESE, NC US",
        "elevation": 502.9
      }
    },
    {
      "type": "Feature",
      "geometry": {
        "type": "Point",
        "coordinates": [
          -83.71667,
          35.46667
        ]
      },
      "properties": {
        "name": "PROCTOR, NC US",
        "elevation": 531
      }
    },
    {
      "type": "Feature",
      "geometry": {
        "type": "Point",
        "coordinates": [
          -82.9,
          35.18333
        ]
      },
      "properties": {
        "name": "QUEBEC, NC US",
        "elevation": 793.1
      }
    },
    {
      "type": "Feature",
      "geometry": {
        "type": "Point",
        "coordinates": [
          -82.88333,
          35.13333
        ]
      },
      "properties": {
        "name": "QUEBEC, NC US",
        "elevation": 792.5
      }
    },
    {
      "type": "Feature",
      "geometry": {
        "type": "Point",
        "coordinates": [
          -79.219,
          34.987
        ]
      },
      "properties": {
        "name": "RAEFORD, NC US",
        "elevation": 76.2
      }
    },
    {
      "type": "Feature",
      "geometry": {
        "type": "Point",
        "coordinates": [
          -78.7819,
          35.8923
        ]
      },
      "properties": {
        "name": "RALEIGH AIRPORT, NC US",
        "elevation": 126.8
      }
    },
    {
      "type": "Feature",
      "geometry": {
        "type": "Point",
        "coordinates": [
          -78.6838,
          35.7294
        ]
      },
      "properties": {
        "name": "RALEIGH 4 SW, NC US",
        "elevation": 128
      }
    },
    {
      "type": "Feature",
      "geometry": {
        "type": "Point",
        "coordinates": [
          -78.6988,
          35.7944
        ]
      },
      "properties": {
        "name": "RALEIGH STATE UNIVERSITY, NC US",
        "elevation": 121.9
      }
    },
    {
      "type": "Feature",
      "geometry": {
        "type": "Point",
        "coordinates": [
          -79.65,
          35.63333
        ]
      },
      "properties": {
        "name": "RAMSEUR 6 S, NC US",
        "elevation": 134.1
      }
    },
    {
      "type": "Feature",
      "geometry": {
        "type": "Point",
        "coordinates": [
          -79.7917,
          35.8222
        ]
      },
      "properties": {
        "name": "RANDLEMAN, NC US",
        "elevation": 246.9
      }
    },
    {
      "type": "Feature",
      "geometry": {
        "type": "Point",
        "coordinates": [
          -83.36667,
          35.33333
        ]
      },
      "properties": {
        "name": "RAVEN MOUNTAIN, NC US",
        "elevation": 1373.1
      }
    },
    {
      "type": "Feature",
      "geometry": {
        "type": "Point",
        "coordinates": [
          -83.3,
          35.51667
        ]
      },
      "properties": {
        "name": "RAVENSFORD, NC US",
        "elevation": 641
      }
    },
    {
      "type": "Feature",
      "geometry": {
        "type": "Point",
        "coordinates": [
          -79.1622,
          34.8122
        ]
      },
      "properties": {
        "name": "RED SPRINGS 1 SE, NC US",
        "elevation": 54.9
      }
    },
    {
      "type": "Feature",
      "geometry": {
        "type": "Point",
        "coordinates": [
          -76.9153,
          35.131
        ]
      },
      "properties": {
        "name": "REELSBORO, NC US",
        "elevation": 13.7
      }
    },
    {
      "type": "Feature",
      "geometry": {
        "type": "Point",
        "coordinates": [
          -81.83333,
          36.33333
        ]
      },
      "properties": {
        "name": "REESE, NC US",
        "elevation": 1012.9
      }
    },
    {
      "type": "Feature",
      "geometry": {
        "type": "Point",
        "coordinates": [
          -79.63333,
          36.35
        ]
      },
      "properties": {
        "name": "REIDSVILLE, NC US",
        "elevation": 253
      }
    },
    {
      "type": "Feature",
      "geometry": {
        "type": "Point",
        "coordinates": [
          -79.6944,
          36.3796
        ]
      },
      "properties": {
        "name": "REIDSVILLE 2 NW, NC US",
        "elevation": 271.3
      }
    },
    {
      "type": "Feature",
      "geometry": {
        "type": "Point",
        "coordinates": [
          -81.4372,
          35.7747
        ]
      },
      "properties": {
        "name": "RHODHISS HYDRO PLANT, NC US",
        "elevation": 297.5
      }
    },
    {
      "type": "Feature",
      "geometry": {
        "type": "Point",
        "coordinates": [
          -81.71667,
          36.33333
        ]
      },
      "properties": {
        "name": "RICH MOUNTAIN GAP, NC US",
        "elevation": 1327.1
      }
    },
    {
      "type": "Feature",
      "geometry": {
        "type": "Point",
        "coordinates": [
          -77.6717,
          36.4783
        ]
      },
      "properties": {
        "name": "ROANOKE RAPIDS, NC US",
        "elevation": 64
      }
    },
    {
      "type": "Feature",
      "geometry": {
        "type": "Point",
        "coordinates": [
          -80.99539,
          36.40869
        ]
      },
      "properties": {
        "name": "ROARING GAP 1 NW, NC US",
        "elevation": 859.5
      }
    },
    {
      "type": "Feature",
      "geometry": {
        "type": "Point",
        "coordinates": [
          -83.70013,
          35.3763
        ]
      },
      "properties": {
        "name": "ROBBINSVILLE AG 5 NE, NC US",
        "elevation": 710.2
      }
    },
    {
      "type": "Feature",
      "geometry": {
        "type": "Point",
        "coordinates": [
          -83.8128,
          35.2989
        ]
      },
      "properties": {
        "name": "ROBBINSVILLE 1 S, NC US",
        "elevation": 691.9
      }
    },
    {
      "type": "Feature",
      "geometry": {
        "type": "Point",
        "coordinates": [
          -82.8,
          35.58333
        ]
      },
      "properties": {
        "name": "ROCKYFACE MOUNTAIN, NC US",
        "elevation": 946.1
      }
    },
    {
      "type": "Feature",
      "geometry": {
        "type": "Point",
        "coordinates": [
          -77.8189,
          35.9516
        ]
      },
      "properties": {
        "name": "ROCKY MOUNT, NC US",
        "elevation": 39.6
      }
    },
    {
      "type": "Feature",
      "geometry": {
        "type": "Point",
        "coordinates": [
          -77.8,
          35.96667
        ]
      },
      "properties": {
        "name": "ROCKY MOUNT FAA AIRPORT, NC US",
        "elevation": 25.9
      }
    },
    {
      "type": "Feature",
      "geometry": {
        "type": "Point",
        "coordinates": [
          -77.6806,
          35.8936
        ]
      },
      "properties": {
        "name": "ROCKY MOUNT 8 ESE, NC US",
        "elevation": 33.5
      }
    },
    {
      "type": "Feature",
      "geometry": {
        "type": "Point",
        "coordinates": [
          -82.8204,
          35.137
        ]
      },
      "properties": {
        "name": "ROSMAN, NC US",
        "elevation": 664.5
      }
    },
    {
      "type": "Feature",
      "geometry": {
        "type": "Point",
        "coordinates": [
          -78.85694,
          36.21194
        ]
      },
      "properties": {
        "name": "ROUGEMONT, NC US",
        "elevation": 164.6
      }
    },
    {
      "type": "Feature",
      "geometry": {
        "type": "Point",
        "coordinates": [
          -80.6225,
          35.6967
        ]
      },
      "properties": {
        "name": "SALISBURY 9 WNW, NC US",
        "elevation": 221
      }
    },
    {
      "type": "Feature",
      "geometry": {
        "type": "Point",
        "coordinates": [
          -78.8858,
          36.3464
        ]
      },
      "properties": {
        "name": "ROXBORO 7 ESE, NC US",
        "elevation": 216.4
      }
    },
    {
      "type": "Feature",
      "geometry": {
        "type": "Point",
        "coordinates": [
          -80.3069,
          36.2333
        ]
      },
      "properties": {
        "name": "RURAL HALL, NC US",
        "elevation": 292.6
      }
    },
    {
      "type": "Feature",
      "geometry": {
        "type": "Point",
        "coordinates": [
          -82.46667,
          35.25
        ]
      },
      "properties": {
        "name": "RUSH MOUNTAIN, NC US",
        "elevation": 900.1
      }
    },
    {
      "type": "Feature",
      "geometry": {
        "type": "Point",
        "coordinates": [
          -80.4822,
          35.6836
        ]
      },
      "properties": {
        "name": "SALISBURY, NC US",
        "elevation": 213.4
      }
    },
    {
      "type": "Feature",
      "geometry": {
        "type": "Point",
        "coordinates": [
          -80.6225,
          35.6967
        ]
      },
      "properties": {
        "name": "SALISBURY 9 WNW, NC US",
        "elevation": 221
      }
    },
    {
      "type": "Feature",
      "geometry": {
        "type": "Point",
        "coordinates": [
          -82.56667,
          35.95
        ]
      },
      "properties": {
        "name": "SAMS GAP, NC US",
        "elevation": 1125
      }
    },
    {
      "type": "Feature",
      "geometry": {
        "type": "Point",
        "coordinates": [
          -79.11667,
          35.48333
        ]
      },
      "properties": {
        "name": "SANFORD 4 ESE, NC US",
        "elevation": 112.5
      }
    },
    {
      "type": "Feature",
      "geometry": {
        "type": "Point",
        "coordinates": [
          -79.0464,
          35.5347
        ]
      },
      "properties": {
        "name": "SANFORD 8 NE, NC US",
        "elevation": 79.9
      }
    },
    {
      "type": "Feature",
      "geometry": {
        "type": "Point",
        "coordinates": [
          -83.88333,
          35.38333
        ]
      },
      "properties": {
        "name": "SANTEETLAH DAM, NC US",
        "elevation": 595
      }
    },
    {
      "type": "Feature",
      "geometry": {
        "type": "Point",
        "coordinates": [
          -83.9,
          35.35
        ]
      },
      "properties": {
        "name": "SANTEETLAH GAP, NC US",
        "elevation": 848
      }
    },
    {
      "type": "Feature",
      "geometry": {
        "type": "Point",
        "coordinates": [
          -77.4231,
          36.1369
        ]
      },
      "properties": {
        "name": "SCOTLAND NECK NUMBER 2, NC US",
        "elevation": 30.5
      }
    },
    {
      "type": "Feature",
      "geometry": {
        "type": "Point",
        "coordinates": [
          -77.38417,
          36.20944
        ]
      },
      "properties": {
        "name": "SCOTLAND NECK, NC US",
        "elevation": 1.8
      }
    },
    {
      "type": "Feature",
      "geometry": {
        "type": "Point",
        "coordinates": [
          -80.76667,
          36.01667
        ]
      },
      "properties": {
        "name": "SETTLE, NC US",
        "elevation": 214
      }
    },
    {
      "type": "Feature",
      "geometry": {
        "type": "Point",
        "coordinates": [
          -78.3894,
          33.9283
        ]
      },
      "properties": {
        "name": "SHALLOTTE AG, NC US",
        "elevation": 6.1
      }
    },
    {
      "type": "Feature",
      "geometry": {
        "type": "Point",
        "coordinates": [
          -78.45,
          34
        ]
      },
      "properties": {
        "name": "SHALLOTTE 4 WNW, NC US",
        "elevation": 11.9
      }
    },
    {
      "type": "Feature",
      "geometry": {
        "type": "Point",
        "coordinates": [
          -81.57096,
          35.31099
        ]
      },
      "properties": {
        "name": "SHELBY 2 NW, NC US",
        "elevation": 249.9
      }
    },
    {
      "type": "Feature",
      "geometry": {
        "type": "Point",
        "coordinates": [
          -81.55,
          35.26667
        ]
      },
      "properties": {
        "name": "SHELBY 2, NC US",
        "elevation": 237.7
      }
    },
    {
      "type": "Feature",
      "geometry": {
        "type": "Point",
        "coordinates": [
          -81.9311,
          35.2652
        ]
      },
      "properties": {
        "name": "FOREST CITY 6 SW, NC US",
        "elevation": 301.8
      }
    },
    {
      "type": "Feature",
      "geometry": {
        "type": "Point",
        "coordinates": [
          -79.4622,
          35.7606
        ]
      },
      "properties": {
        "name": "SILER CITY 2 N, NC US",
        "elevation": 185.9
      }
    },
    {
      "type": "Feature",
      "geometry": {
        "type": "Point",
        "coordinates": [
          -77.81667,
          34.78333
        ]
      },
      "properties": {
        "name": "SLOAN 3 S, NC US",
        "elevation": 14.9
      }
    },
    {
      "type": "Feature",
      "geometry": {
        "type": "Point",
        "coordinates": [
          -78.3443,
          35.5171
        ]
      },
      "properties": {
        "name": "SMITHFIELD, NC US",
        "elevation": 45.7
      }
    },
    {
      "type": "Feature",
      "geometry": {
        "type": "Point",
        "coordinates": [
          -81.93333,
          36.11667
        ]
      },
      "properties": {
        "name": "SMOKY GAP, NC US",
        "elevation": 1122
      }
    },
    {
      "type": "Feature",
      "geometry": {
        "type": "Point",
        "coordinates": [
          -81.7,
          36.33333
        ]
      },
      "properties": {
        "name": "SNAKE MOUNTAIN, NC US",
        "elevation": 1702
      }
    },
    {
      "type": "Feature",
      "geometry": {
        "type": "Point",
        "coordinates": [
          -77.4,
          34.55
        ]
      },
      "properties": {
        "name": "SNEADS FERRY 2 ENE, NC US",
        "elevation": 3
      }
    },
    {
      "type": "Feature",
      "geometry": {
        "type": "Point",
        "coordinates": [
          -82.15,
          35.96667
        ]
      },
      "properties": {
        "name": "SNOW CREEK, NC US",
        "elevation": 805
      }
    },
    {
      "type": "Feature",
      "geometry": {
        "type": "Point",
        "coordinates": [
          -77.6843,
          35.452
        ]
      },
      "properties": {
        "name": "SNOW HILL 2 SW, NC US",
        "elevation": 29
      }
    },
    {
      "type": "Feature",
      "geometry": {
        "type": "Point",
        "coordinates": [
          -77.6668,
          35.4551
        ]
      },
      "properties": {
        "name": "SNOW HILL WASTE WATER TREAMENT PLANT, NC US",
        "elevation": 12.5
      }
    },
    {
      "type": "Feature",
      "geometry": {
        "type": "Point",
        "coordinates": [
          -79.43333,
          35.16667
        ]
      },
      "properties": {
        "name": "SOUTHERN PINES 2 W, NC US",
        "elevation": 153
      }
    },
    {
      "type": "Feature",
      "geometry": {
        "type": "Point",
        "coordinates": [
          -78.0077,
          33.9947
        ]
      },
      "properties": {
        "name": "SOUTHPORT 5 N, NC US",
        "elevation": 6.1
      }
    },
    {
      "type": "Feature",
      "geometry": {
        "type": "Point",
        "coordinates": [
          -81.15275,
          36.45927
        ]
      },
      "properties": {
        "name": "SPARTA 3.5 SSW, NC US",
        "elevation": 917.8
      }
    },